idlocalidade,cod_localidade,tipo,nome_localidade,cod_microrregiao,nome_microrregiao,cod_mesorregiao,nome_mesorregiao,cod_uf,sigla_uf,nome_uf,cod_regiao,sigla_regiao,nome_regiao,cep,faixa_cep1,faixa_cep2,faixa_cep3,faixa_cep4,ddd,pop_atual,areakm,densidade,gentilico,prefeito,distancia_capital,tempo_percurso,location_lat,location_lng
1,1200013,Municipio,Acrelândia,12004,"Rio Branco",1202,"Vale do Acre",12,AC,Acre,1,N,Norte,,69945000,69949999,,,68,15.256,"1.807,948","6,94",acrelandense,"Ederaldo Caetano de Sousa",,,,
2,1200054,Municipio,"Assis Brasil",12005,Brasiléia,1202,"Vale do Acre",12,AC,Acre,1,N,Norte,,69935000,69939999,,,68,7.417,"4.974,175","1,22",assis-brasiliense,"Antonio Barbosa de Sousa",,,-10.9316252,-69.5587859
3,1200104,Municipio,Brasiléia,12005,Brasiléia,1202,"Vale do Acre",12,AC,Acre,1,N,Norte,,69932000,69933999,,,68,26.278,"3.916,502","5,46",brasileense,"Fernanda de Souza Hassem Cesar",,,-11.0128971,-68.7418934
4,1200138,Municipio,Bujari,12004,"Rio Branco",1202,"Vale do Acre",12,AC,Acre,1,N,Norte,,69926000,69926999,,,68,10.266,"3.034,869","2,79",bujariense,"Romualdo de Souza Araujo",,,-9.8276108,-67.9510322
5,1200179,Municipio,Capixaba,12004,"Rio Branco",1202,"Vale do Acre",12,AC,Acre,1,N,Norte,,69931000,69931999,,,68,11.733,"1.701,974","5,17",capixabense,"Jos&eacute; Augusto Gomes da Cunha",,,-10.5721119,-67.6751217
6,1200203,Municipio,"Cruzeiro do Sul",12001,"Cruzeiro do Sul",1201,"Vale do Juruá",12,AC,Acre,1,N,Norte,,69980000,69981999,,,68,88.376,"8.779,403","8,94",cruzeirense,"Ilderlei Souza Rodrigues Cordeiro",,,-7.6279952,-72.6762232
7,1200252,Municipio,Epitaciolândia,12005,Brasiléia,1202,"Vale do Acre",12,AC,Acre,1,N,Norte,,69934000,69934999,,,68,18.411,"1.654,768","9,13",epitaciolandense,"Jo&atilde;o Sebasti&atilde;o Flores da Silva",,,-11.0294543,-68.7407282
8,1200302,Municipio,Feijó,12002,Tarauacá,1201,"Vale do Juruá",12,AC,Acre,1,N,Norte,,69960000,69969999,,,68,34.780,"27.975,426","1,16",feijoense,"Kiefer Roberto Cavalcante Lima",,,-8.1642363,-70.3529458
9,1200328,Municipio,Jordão,12002,Tarauacá,1201,"Vale do Juruá",12,AC,Acre,1,N,Norte,,69975000,69979999,,,68,8.317,"5.357,282","1,23",jordãoense,"Elson de Lima Farias",,,-9.1908802,-71.9483779
10,1200336,Municipio,"Mâncio Lima",12001,"Cruzeiro do Sul",1201,"Vale do Juruá",12,AC,Acre,1,N,Norte,,69990000,69999999,,,68,18.977,"5.452,853","2,79",mancio-limense,"Isaac de Souza Lima",,,-7.593657,-72.9265051
11,1200344,Municipio,"Manoel Urbano",12003,"Sena Madureira",1202,"Vale do Acre",12,AC,Acre,1,N,Norte,,69950000,69954999,,,68,9.459,"10.633,137","0,75",manoel-urbanense,"Jos&eacute; Altan&iacute;zio Taumaturgo S&aacute;",,,-9.0386907,-69.5737912
12,1200351,Municipio,"Marechal Thaumaturgo",12001,"Cruzeiro do Sul",1201,"Vale do Juruá",12,AC,Acre,1,N,Norte,,69983000,69984999,,,68,18.867,"8.191,692","1,74",thaumaturguense,"Isaac da Silva Piy&atilde;ko",,,-8.9481968,-72.7883456
13,1200385,Municipio,"Plácido de Castro",12004,"Rio Branco",1202,"Vale do Acre",12,AC,Acre,1,N,Norte,,69928000,69929999,,,68,19.761,"1.943,850","8,86",placidiano,"Gedeon Sousa Barros",,,-10.3240904,-67.1874892
14,1200807,Municipio,"Porto Acre",12004,"Rio Branco",1202,"Vale do Acre",12,AC,Acre,1,N,Norte,,69927000,69927999,,,68,18.504,"2.604,885","5,71",portoacrense,"Benedito Cavalcante Damasceno",,,-9.5938632,-67.5415585
15,1200393,Municipio,"Porto Walter",12001,"Cruzeiro do Sul",1201,"Vale do Juruá",12,AC,Acre,1,N,Norte,,69982000,69982999,,,68,11.982,"6.443,830","1,42",portowaltense,"Jos&eacute; Estephan Barbary Filho",,,-8.2669708,-72.7424844
16,1200401,Municipio,"Rio Branco",12004,"Rio Branco",1202,"Vale do Acre",12,AC,Acre,1,N,Norte,,69900001,69924999,,,68,407.319,"8.834,942","38,03",rio-branquense,"Maria do Socorro Neri Medeiros de Souza",,,-9.9753374,-68.4293214
17,1200427,Municipio,"Rodrigues Alves",12001,"Cruzeiro do Sul",1201,"Vale do Juruá",12,AC,Acre,1,N,Norte,,69985000,69989999,,,68,18.930,"3.076,951","4,68",rodriguesalvense,"Sebasti&atilde;o Souza Correia",,,-7.7364741,-72.6535541
18,1200435,Municipio,"Santa Rosa do Purus",12003,"Sena Madureira",1202,"Vale do Acre",12,AC,Acre,1,N,Norte,,69955000,69959999,,,68,6.540,"6.145,612","0,76",santarosense,"Francisco de Assis Fernandes da Costa",,,-9.4468562,-70.490786
19,1200500,Municipio,"Sena Madureira",12003,"Sena Madureira",1202,"Vale do Acre",12,AC,Acre,1,N,Norte,,69940000,69944999,,,68,45.848,"23.753,066","1,60",sena-madureirense,"Osmar Serafim de Andrade",,,-9.0792553,-68.6720528
20,1200450,Municipio,"Senador Guiomard",12004,"Rio Branco",1202,"Vale do Acre",12,AC,Acre,1,N,Norte,,69925000,69925999,,,68,23.024,"2.322,030","8,69",guiomaense,"Andre Luis Tavares da Cruz Maia",,,-10.1527174,-67.7385254
21,1200609,Municipio,Tarauacá,12002,Tarauacá,1201,"Vale do Juruá",12,AC,Acre,1,N,Norte,,69970000,69974999,,,68,42.567,"20.171,075","1,76",tarauacaense,"Marilete Vitorino de Siqueira",,,-8.1608977,-70.7652128
22,1200708,Municipio,Xapuri,12005,Brasiléia,1202,"Vale do Acre",12,AC,Acre,1,N,Norte,,69930000,69930999,,,68,19.323,"5.347,468","3,01",xapuriense,"Francisco Ubiracy Machado de Vasconcelos",,,-10.651543,-68.4992999
23,2700102,Municipio,"Água Branca",27001,"Serrana do Sertão Alagoano",2701,"Sertão Alagoano",27,AL,Alagoas,2,NE,Nordeste,57490000,57490000,57499999,,,82,20.196,"468,225","42,62",água-branquense,"Jos&eacute; Carlos de Carvalho","309 km","4 horas 20 minutos",-9.2613574,-37.9361482
26,2700201,Municipio,Anadia,27012,"São Miguel dos Campos",2703,"Leste Alagoano",27,AL,Alagoas,2,NE,Nordeste,57660000,57660000,57669999,,,82,17.545,"186,134","91,96",anadiense,"Jose Celino Ribeiro de Lima","98,0 km","1 hora 29 minutos",-9.6825893,-36.3040948
30,2700300,Municipio,Arapiraca,27006,Arapiraca,2702,"Agreste Alagoano",27,AL,Alagoas,2,NE,Nordeste,,57300001,57319999,,,82,231.747,"345,655","600,83",arapiraquense,"Rogerio Auto Teofilo","132 km","2 horas 5 minutos",-9.755572,-36.6639592
31,2700409,Municipio,Atalaia,27009,"Mata Alagoana",2703,"Leste Alagoano",27,AL,Alagoas,2,NE,Nordeste,,57690000,57699999,,,82,47.185,"533,258","83,82",atalaiense,"Francisco Luiz de Albuquerque","50,3 km","57 minutos",-0.9817383,-49.3332671
36,2700508,Municipio,"Barra de Santo Antônio",27011,Maceió,2703,"Leste Alagoano",27,AL,Alagoas,2,NE,Nordeste,,57925000,57929999,,,82,15.932,"131,364","102,79",barrense,"Emanuella Corado Acioli de Moura","46,0 km","59 minutos",-9.372019,-35.5548422
37,2700607,Municipio,"Barra de São Miguel",27011,Maceió,2703,"Leste Alagoano",27,AL,Alagoas,2,NE,Nordeste,,57180000,57199999,,,82,8.322,"74,244","98,86",barrense,"Jose Medeiros Nicolau","32,0 km","41 minutos",-9.8348619,-35.8868819
40,2700706,Municipio,Batalha,27004,Batalha,2701,"Sertão Alagoano",27,AL,Alagoas,2,NE,Nordeste,57420000,57420000,57424999,,,82,18.232,"319,036","53,21",batalhense,"Marina Thereza Cintra Dantas","186 km","2 horas 47 minutos",-9.674657,-37.1329275
42,2700805,Municipio,Belém,27005,"Palmeira dos Índios",2702,"Agreste Alagoano",27,AL,Alagoas,2,NE,Nordeste,57630000,57630000,57634999,,,82,4.344,"66,655","93,58",belenense,"Ana Paula Antero Santa Rosa Barbosa","116 km","1 hora 50 minutos",-9.5710274,-36.4931633
43,2700904,Municipio,"Belo Monte",27004,Batalha,2701,"Sertão Alagoano",27,AL,Alagoas,2,NE,Nordeste,,57435000,57439999,,,82,6.704,"335,047","21,04",belo-montense,"Claudeval Santos Santana","207 km","3 horas 19 minutos",-9.7966859,-37.1810803
47,2701001,Municipio,"Boca da Mata",27012,"São Miguel dos Campos",2703,"Leste Alagoano",27,AL,Alagoas,2,NE,Nordeste,,57680000,57689999,,,82,27.281,"185,973","138,19",matense,"Gustavo Dantas Feijo","69,3 km","1 hora 12 minutos",-9.6615919,-36.1335683
50,2701100,Municipio,Branquinha,27009,"Mata Alagoana",2703,"Leste Alagoano",27,AL,Alagoas,2,NE,Nordeste,,57830000,57839999,,,82,10.494,"165,250","63,63",branquinhense,"Jairon Maia Fernandes Neto","70,4 km","1 hora 19 minutos",-9.2340329,-36.0240861
51,2701209,Municipio,Cacimbinhas,27005,"Palmeira dos Índios",2702,"Agreste Alagoano",27,AL,Alagoas,2,NE,Nordeste,,57570000,57579999,,,82,10.858,"273,767","37,35",cacimbinhense,"Hugo Wanderley Caju","180 km","2 horas 40 minutos",-9.4018884,-36.9913009
53,2701308,Municipio,Cajueiro,27009,"Mata Alagoana",2703,"Leste Alagoano",27,AL,Alagoas,2,NE,Nordeste,,57770000,57779999,,,82,21.264,"94,357","164,24",cajueirense,"Antonio Palmery Melo Neto","74,3 km","1 hora 17 minutos",-9.398546,-36.1451365
56,2701357,Municipio,Campestre,27009,"Mata Alagoana",2703,"Leste Alagoano",27,AL,Alagoas,2,NE,Nordeste,,57968000,57969999,,,82,6.936,"65,910","99,39",camprestrense,"Nielson Mendes da Silva","134 km","2 horas 14 minutos",-8.8499552,-35.5659424
57,2701407,Municipio,"Campo Alegre",27012,"São Miguel dos Campos",2703,"Leste Alagoano",27,AL,Alagoas,2,NE,Nordeste,,57250000,57254999,,,82,57.063,"312,708","172,20",campo-alegrense,"Pauline de F&aacute;tima Pereira Albuquerque","93,0 km","1 hora 25 minutos",-9.7830778,-36.3507632
58,2701506,Municipio,"Campo Grande",27006,Arapiraca,2702,"Agreste Alagoano",27,AL,Alagoas,2,NE,Nordeste,,57350000,57359999,,,82,9.558,"169,988","53,98",campo-grandense,"Arnaldo Higino Lessa","171 km","2 horas 41 minutos",-9.9647781,-36.7604027
61,2701605,Municipio,Canapi,27001,"Serrana do Sertão Alagoano",2701,"Sertão Alagoano",27,AL,Alagoas,2,NE,Nordeste,,57530000,57534999,,,82,17.722,"602,778","30,02",canapiense,"Vinicius Jose Mariano de Lima","251 km","3 horas 40 minutos",-9.1510757,-37.5108091
64,2701704,Municipio,Capela,27009,"Mata Alagoana",2703,"Leste Alagoano",27,AL,Alagoas,2,NE,Nordeste,,57780000,57799999,,,82,17.053,"257,561","70,39",capelense,"Adelmo Moreira Calheiros","66,1 km","1 hora 9 minutos",-9.4106241,-36.0810062
65,2701803,Municipio,Carneiros,27003,"Santana do Ipanema",2701,"Sertão Alagoano",27,AL,Alagoas,2,NE,Nordeste,57535000,57535000,57539999,,,82,9.081,"101,853","73,32",carneirense,"Geraldo Novais Agra Filho","227 km","3 horas 24 minutos",-9.4828391,-37.376628
67,2701902,Municipio,"Chã Preta",27008,"Serrana dos Quilombos",2703,"Leste Alagoano",27,AL,Alagoas,2,NE,Nordeste,57760000,57760000,57769999,,,82,7.311,"169,464","41,34",chã-pretense,"Rita Coimbra Cerqueira Ten&oacute;rio","109 km","1 hora 54 minutos",-9.2571423,-36.2987092
68,2702009,Municipio,"Coité do Nóia",27006,Arapiraca,2702,"Agreste Alagoano",27,AL,Alagoas,2,NE,Nordeste,,57325000,57329999,,,82,10.693,"88,759","123,44",coitenense,"Jos&eacute; de Sena Netto","134 km","2 horas 11 minutos",-9.6136495,-36.5877948
69,2702108,Municipio,"Colônia Leopoldina",27009,"Mata Alagoana",2703,"Leste Alagoano",27,AL,Alagoas,2,NE,Nordeste,,57975000,57979999,,,82,21.698,"207,894","96,29",leopoldinense,"Manuilson Andrade Santos","117 km","1 hora 51 minutos",-8.9137654,-35.7205944
70,2702207,Municipio,"Coqueiro Seco",27011,Maceió,2703,"Leste Alagoano",27,AL,Alagoas,2,NE,Nordeste,,57140000,57149999,,,82,5.845,"39,608","139,09",coqueirense,"Maria Decele Damaso de Almeida","25,9 km","44 minutos",-9.6380585,-35.7997778
71,2702306,Municipio,Coruripe,27012,"São Miguel dos Campos",2703,"Leste Alagoano",27,AL,Alagoas,2,NE,Nordeste,,57230000,57239999,,,82,56.933,"897,780","56,77",coruripense,"Joaquim Beltr&atilde;o Siqueira","90,3 km","1 hora 25 minutos",-10.1250057,-36.1761209
73,2702355,Municipio,Craíbas,27006,Arapiraca,2702,"Agreste Alagoano",27,AL,Alagoas,2,NE,Nordeste,57320000,57320000,57324999,,,82,24.219,"278,880","83,44",craibense,"Ediel Barbosa Lima","149 km","2 horas 22 minutos",-9.6177297,-36.7667073
74,2702405,Municipio,"Delmiro Gouveia",27002,"Alagoana do Sertão do São Francisco",2701,"Sertão Alagoano",27,AL,Alagoas,2,NE,Nordeste,,57480000,57489999,,,82,52.016,"626,690","79,13",delmirense,"Eraldo Joaquim Cordeiro","294 km","4 horas 18 minutos",-9.3796624,-38.0007321
75,2702504,Municipio,"Dois Riachos",27003,"Santana do Ipanema",2701,"Sertão Alagoano",27,AL,Alagoas,2,NE,Nordeste,,57560000,57569999,,,82,11.075,"139,851","77,45",riachense,"Ramon Camilo Silva","191 km","2 horas 46 minutos",-9.3894423,-37.0896115
77,2702553,Municipio,"Estrela de Alagoas",27005,"Palmeira dos Índios",2702,"Agreste Alagoano",27,AL,Alagoas,2,NE,Nordeste,,57625000,57629999,,,82,18.205,"260,772","66,41",estrelense,"Arlindo Garrote da Silva Neto","157 km","2 horas 25 minutos",-9.4071279,-36.7604027
78,2702603,Municipio,"Feira Grande",27006,Arapiraca,2702,"Agreste Alagoano",27,AL,Alagoas,2,NE,Nordeste,57340000,57340000,57349999,,,82,22.166,"178,055","123,42",feira-grandense,"Fl&aacute;vio Rangel Ap&oacute;stolo Lira","147 km","2 horas 18 minutos",-9.9009938,-36.6764376
79,2702702,Municipio,"Feliz Deserto",27013,Penedo,2703,"Leste Alagoano",27,AL,Alagoas,2,NE,Nordeste,,57220000,57229999,,,82,4.754,"110,373","47,31",feliz-desertense,"Rosiana Lima Beltr&atilde;o Siqueira","119 km","1 hora 51 minutos",-10.293923,-36.3031172
81,2702801,Municipio,Flexeiras,27009,"Mata Alagoana",2703,"Leste Alagoano",27,AL,Alagoas,2,NE,Nordeste,,57995000,57999999,,,82,12.790,"333,052","36,99",flexeirense,"Maria Isabel Costa Souza","64,2 km","1 hora 13 minutos",-9.2772745,-35.723615
84,2702900,Municipio,"Girau do Ponciano",27006,Arapiraca,2702,"Agreste Alagoano",27,AL,Alagoas,2,NE,Nordeste,,57360000,57369999,,,82,40.917,"513,454","73,11",girauense,"David Ramos de Barros","159 km","2 horas 29 minutos",-9.8828308,-36.8305595
85,2703007,Municipio,Ibateguara,27008,"Serrana dos Quilombos",2703,"Leste Alagoano",27,AL,Alagoas,2,NE,Nordeste,57890000,57890000,57899999,,,82,15.616,"265,312","57,10",ibateguarense,"Manoel Geraertes Alves Cruz","119 km","2 horas 0 minutos",-8.9734494,-35.9309471
86,2703106,Municipio,Igaci,27005,"Palmeira dos Índios",2702,"Agreste Alagoano",27,AL,Alagoas,2,NE,Nordeste,,57620000,57624999,,,82,25.631,"334,344","75,31",igaciense,"Oliveiro Torres Pianco","153 km","2 horas 24 minutos",-9.5287917,-36.6741487
87,2703205,Municipio,"Igreja Nova",27013,Penedo,2703,"Leste Alagoano",27,AL,Alagoas,2,NE,Nordeste,,57280000,57289999,,,82,24.499,"427,029","54,49",igreja-novense,"Ver&ocirc;nica Dantas Lima e Silva","148 km","2 horas 24 minutos",-10.0830464,-36.5661908
88,2703304,Municipio,Inhapi,27001,"Serrana do Sertão Alagoano",2701,"Sertão Alagoano",27,AL,Alagoas,2,NE,Nordeste,57545000,57545000,57549999,,,82,18.385,"372,020","47,49",inhapiense,"Jos&eacute; Cicero Vieira","271 km","3 horas 55 minutos",-9.2766863,-37.681228
89,2703403,Municipio,"Jacaré dos Homens",27004,Batalha,2701,"Sertão Alagoano",27,AL,Alagoas,2,NE,Nordeste,57430000,57430000,57434999,,,82,5.253,"148,992","38,03",jacarezeiro,"Jose Floriano Bento de Melo","195 km","2 horas 54 minutos",-9.6358282,-37.2052559
90,2703502,Municipio,Jacuípe,27009,"Mata Alagoana",2703,"Leste Alagoano",27,AL,Alagoas,2,NE,Nordeste,,57960000,57964999,,,82,7.021,"208,738","33,26",jacuipense,"Amaro Ferreira da Silva Junior","126 km","2 horas 18 minutos",-8.8408252,-35.4591827
91,2703601,Municipio,Japaratinga,27010,"Litoral Norte Alagoano",2703,"Leste Alagoano",27,AL,Alagoas,2,NE,Nordeste,57950000,57950000,57954999,,,82,8.361,"85,356","90,22",japaratinguense,"Klever R&ecirc;go Loureiro Junior","118 km","2 horas 2 minutos",-9.089797,-35.2580917
92,2703700,Municipio,Jaramataia,27004,Batalha,2701,"Sertão Alagoano",27,AL,Alagoas,2,NE,Nordeste,,57425000,57429999,,,82,5.770,"105,863","53,59",jaramataiense,"Jefferson Torres Barreto","171 km","2 horas 36 minutos",-9.6597509,-37.0023393
94,2703809,Municipio,"Joaquim Gomes",27009,"Mata Alagoana",2703,"Leste Alagoano",27,AL,Alagoas,2,NE,Nordeste,,57980000,57989999,,,82,23.993,"298,291","75,68",juruquense,"Adriano Ferreira Barros","88,3 km","1 hora 49 minutos",-9.0566172,-35.784354
95,2703908,Municipio,Jundiá,27009,"Mata Alagoana",2703,"Leste Alagoano",27,AL,Alagoas,2,NE,Nordeste,,57965000,57967999,,,82,4.155,"88,794","45,56",jundiaense,"Carlos Antonio de Moraes e Lima Filho","125 km","2 horas 16 minutos",-8.9421599,-35.5525978
96,2704005,Municipio,Junqueiro,27012,"São Miguel dos Campos",2703,"Leste Alagoano",27,AL,Alagoas,2,NE,Nordeste,,57270000,57274999,,,82,24.727,"247,724","98,66",junqueirense,"Carlos Augusto Lima de Almeida","116 km","1 hora 49 minutos",-9.9229874,-36.4762172
98,2704104,Municipio,"Lagoa da Canoa",27006,Arapiraca,2702,"Agreste Alagoano",27,AL,Alagoas,2,NE,Nordeste,,57330000,57339999,,,82,17.852,"83,621","206,33",canoense,"Taina Correa de Sa Lucio da Silva","146 km","2 horas 18 minutos",-9.830487,-36.7363876
108,2704203,Municipio,"Limoeiro de Anadia",27006,Arapiraca,2702,"Agreste Alagoano",27,AL,Alagoas,2,NE,Nordeste,,57260000,57264999,,,82,28.635,"309,205","85,48",limoeirense,"Marcelo Rodrigues Barbosa","111 km","1 hora 39 minutos",-9.7381888,-36.5020956
109,2704302,Municipio,Maceió,27011,Maceió,2703,"Leste Alagoano",27,AL,Alagoas,2,NE,Nordeste,,57000001,57099999,,,82,1.018.948,"509,320","1.854,10",maceioense,"Rui Soares Palmeira","1 m","1 min",-9.6498487,-35.7089492
110,2704401,Municipio,"Major Isidoro",27004,Batalha,2701,"Sertão Alagoano",27,AL,Alagoas,2,NE,Nordeste,,57580000,57599999,,,82,19.804,"448,496","41,63",isidorense,"Maria Santana Mariano Silva Campos","198 km","2 horas 57 minutos",-9.5237236,-37.0185617
111,2704906,Municipio,"Mar Vermelho",27005,"Palmeira dos Índios",2702,"Agreste Alagoano",27,AL,Alagoas,2,NE,Nordeste,57730000,57730000,57739999,,,82,3.514,"91,741","39,23",mar-vermelhense,"Juliana Lopes de Farias Almeida","113 km","1 hora 58 minutos",-9.4479476,-36.388227
112,2704500,Municipio,Maragogi,27010,"Litoral Norte Alagoano",2703,"Leste Alagoano",27,AL,Alagoas,2,NE,Nordeste,,57955000,57959999,,,82,32.704,"334,165","86,06",maragogiense,"Fernando Sergio Lira Neto","129 km","2 horas 16 minutos",-9.0103626,-35.2208449
113,2704609,Municipio,Maravilha,27003,"Santana do Ipanema",2701,"Sertão Alagoano",27,AL,Alagoas,2,NE,Nordeste,57520000,57520000,57524999,,,82,9.163,"332,374","34,05",maravilhense,"Maria da Concei&ccedil;&atilde;o Ribeiro de Albuquerqu","235 km","3 horas 26 minutos",-9.231278,-37.3517369
114,2704708,Municipio,"Marechal Deodoro",27011,Maceió,2703,"Leste Alagoano",27,AL,Alagoas,2,NE,Nordeste,,57160000,57179999,,,82,51.901,"331,186","138,62",deodorense,"Claudio Roberto Ayres da Costa","30,1 km","37 minutos",-9.7669574,-35.8510861
115,2704807,Municipio,Maribondo,27005,"Palmeira dos Índios",2702,"Agreste Alagoano",27,AL,Alagoas,2,NE,Nordeste,,57670000,57679999,,,82,13.264,"180,107","78,14",maribondense,"Leopoldo Cesar Amorim Pedrosa","91,4 km","1 hora 27 minutos",-9.5773909,-36.3058392
117,2705002,Municipio,"Mata Grande",27001,"Serrana do Sertão Alagoano",2701,"Sertão Alagoano",27,AL,Alagoas,2,NE,Nordeste,,57540000,57544999,,,82,25.216,"914,726","27,20",mata-grandense,"Erivaldo de Melo Lima","274 km","4 horas 3 minutos",-9.1186768,-37.7313914
118,2705101,Municipio,"Matriz de Camaragibe",27009,"Mata Alagoana",2703,"Leste Alagoano",27,AL,Alagoas,2,NE,Nordeste,,57910000,57919999,,,82,24.642,"238,344","108,12",matrizense,"Anderson Kennedy da Silva Bolevard","76,9 km","1 hora 29 minutos",-9.154808,-35.5246308
119,2705200,Municipio,Messias,27009,"Mata Alagoana",2703,"Leste Alagoano",27,AL,Alagoas,2,NE,Nordeste,,57990000,57994999,,,82,17.856,"114,156","137,77",messiense,"Jarbas Maya de Omena Filho","36,6 km","51 minutos",-9.3945804,-35.8386213
120,2705309,Municipio,"Minador do Negrão",27005,"Palmeira dos Índios",2702,"Agreste Alagoano",27,AL,Alagoas,2,NE,Nordeste,,57615000,57619999,,,82,5.329,"167,461","31,47",negrense,"Gleysson Correia Cardoso Ferro","172 km","2 horas 37 minutos",-9.3083596,-36.8665768
121,2705408,Municipio,Monteirópolis,27004,Batalha,2701,"Sertão Alagoano",27,AL,Alagoas,2,NE,Nordeste,57440000,57440000,57441999,,,82,7.159,"86,604","80,54",guaribense,"Mailson de Mendonca Lima","202 km","3 horas 2 minutos",-9.6039948,-37.2508
124,2705507,Municipio,Murici,27009,"Mata Alagoana",2703,"Leste Alagoano",27,AL,Alagoas,2,NE,Nordeste,57820000,57820000,57829999,,,82,28.236,"418,028","62,58",muriciense,"Olavo Calheiros Novais Neto","55,7 km","1 hora 7 minutos",-9.3099143,-35.9418054
125,2705606,Municipio,"Novo Lino",27009,"Mata Alagoana",2703,"Leste Alagoano",27,AL,Alagoas,2,NE,Nordeste,57970000,57970000,57974999,,,82,12.690,"215,547","51,67",novo-linense,"Luciene Maria Ferreira","102 km","1 hora 39 minutos",-8.9414557,-35.6627226
126,2705903,Municipio,"Olho D'Água Grande",27007,Traipu,2702,"Agreste Alagoano",27,AL,Alagoas,2,NE,Nordeste,,57390000,57399999,,,82,5.123,"117,006","41,83",olho-grandense,"Jose Adelson de Souza","175 km","2 horas 42 minutos",-10.0572517,-36.8149959
127,2705705,Municipio,"Olho D'Água das Flores",27004,Batalha,2701,"Sertão Alagoano",27,AL,Alagoas,2,NE,Nordeste,,57442000,57444999,,,82,21.688,"191,323","111,01",olho-daguense,"Carlos Andre Paes Barreto dos Anjos","210 km","3 horas 8 minutos",-9.532208,-37.2947534
129,2705804,Municipio,"Olho D'Água do Casado",27002,"Alagoana do Sertão do São Francisco",2701,"Sertão Alagoano",27,AL,Alagoas,2,NE,Nordeste,,57470000,57474999,,,82,9.373,"321,430","26,29",casadense,"Jos&eacute; dos Santos","279 km","4 horas 12 minutos",-9.4229163,-37.8300034
131,2706000,Municipio,Olivença,27004,Batalha,2701,"Sertão Alagoano",27,AL,Alagoas,2,NE,Nordeste,57550000,57550000,57559999,,,82,11.624,"175,708","63,87",olivense,"Jos&eacute; Arnaldo Silva","206 km","3 horas 15 minutos",-9.5160616,-37.1915409
132,2706109,Municipio,"Ouro Branco",27003,"Santana do Ipanema",2701,"Sertão Alagoano",27,AL,Alagoas,2,NE,Nordeste,,57525000,57529999,,,82,11.496,"196,561","53,29",ouro-branquense,"Edimar Barbosa dos Santos","245 km","3 horas 39 minutos",-9.1507325,-37.3613533
133,2706208,Municipio,Palestina,27003,"Santana do Ipanema",2701,"Sertão Alagoano",27,AL,Alagoas,2,NE,Nordeste,,57410000,57419999,,,82,5.011,"38,189","104,55",palestinense,"Eliane Silva Lisboa","217 km","3 horas 29 minutos",-9.7002455,-37.3078999
135,2706307,Municipio,"Palmeira dos Índios",27005,"Palmeira dos Índios",2702,"Agreste Alagoano",27,AL,Alagoas,2,NE,Nordeste,,57600001,57614999,,,82,73.218,"450,958","155,44",palmeirense,"Julio Cezar da Silva","140 km","2 horas 11 minutos",-9.406106,-36.6331433
136,2706406,Municipio,"Pão de Açúcar",27003,"Santana do Ipanema",2701,"Sertão Alagoano",27,AL,Alagoas,2,NE,Nordeste,,57400000,57409999,,,82,24.399,"692,390","34,86",pão-de-açucarense,"Flavio Almeida da Silva Junior","238 km","3 horas 33 minutos",-9.7493777,-37.4351721
137,2706422,Municipio,Pariconha,27001,"Serrana do Sertão Alagoano",2701,"Sertão Alagoano",27,AL,Alagoas,2,NE,Nordeste,,57475000,57479999,,,82,10.533,"254,719","39,70",pariconhense,"Fabiano Ribeiro de Santana","310 km","4 horas 25 minutos",-9.2554242,-38.0026784
138,2706448,Municipio,Paripueira,27011,Maceió,2703,"Leste Alagoano",27,AL,Alagoas,2,NE,Nordeste,57935000,57935000,57939999,,,82,13.176,"92,788","122,05",paripueirense,"Haroldo Nascimento da Silva","30,3 km","46 minutos",-9.4635594,-35.5522986
139,2706505,Municipio,"Passo de Camaragibe",27010,"Litoral Norte Alagoano",2703,"Leste Alagoano",27,AL,Alagoas,2,NE,Nordeste,,57930000,57934999,,,82,15.245,"251,573","60,39",camaragibense,"Edvania Farias Rocha Ug&aacute; Camara","73,3 km","1 hora 26 minutos",-9.242951,-35.4899399
142,2706604,Municipio,"Paulo Jacinto",27005,"Palmeira dos Índios",2702,"Agreste Alagoano",27,AL,Alagoas,2,NE,Nordeste,57740000,57740000,57749999,,,82,7.564,"118,457","62,69",paulo-jacintense,"Marcos Antonio de Almeida","110 km","1 hora 56 minutos",-9.3716397,-36.3740111
143,2706703,Municipio,Penedo,27013,Penedo,2703,"Leste Alagoano",27,AL,Alagoas,2,NE,Nordeste,,57200000,57209999,,,82,63.683,"689,875","87,61",penedense,"Marcius Beltr&atilde;o Siqueira","167 km","2 horas 35 minutos",-10.2889171,-36.5839649
144,2706802,Municipio,Piaçabuçu,27013,Penedo,2703,"Leste Alagoano",27,AL,Alagoas,2,NE,Nordeste,,57210000,57219999,,,82,17.827,"241,125","71,67",piaçabuçuense,"Djalma Guttemberg Siqueira Breda","139 km","2 horas 4 minutos",-10.4073113,-36.4313297
145,2706901,Municipio,Pilar,27011,Maceió,2703,"Leste Alagoano",27,AL,Alagoas,2,NE,Nordeste,,57150000,57159999,,,82,35.111,"251,066","133,37",pilarense,"Renato Rezende Rocha Filho","40,1 km","46 minutos",-9.5981028,-35.9567449
146,2707008,Municipio,Pindoba,27008,"Serrana dos Quilombos",2703,"Leste Alagoano",27,AL,Alagoas,2,NE,Nordeste,,57720000,57729999,,,82,2.908,"117,086","24,37",pindobense,"Maxwell Tenorio Cavalcante","92,7 km","1 hora 42 minutos",-9.4753321,-36.2874787
147,2707107,Municipio,Piranhas,27002,"Alagoana do Sertão do São Francisco",2701,"Sertão Alagoano",27,AL,Alagoas,2,NE,Nordeste,,57460000,57469999,,,82,25.039,"410,112","56,47",piranhense,"Maristela Sena Dias","266 km","3 horas 56 minutos",-9.5436059,-37.745028
150,2707206,Municipio,"Poço das Trincheiras",27003,"Santana do Ipanema",2701,"Sertão Alagoano",27,AL,Alagoas,2,NE,Nordeste,,57510000,57514999,,,82,14.386,"284,257","47,52",pocense,"Maria Aparecida Ferreira Rodrigues Silva","221 km","3 horas 15 minutos",-9.3063354,-37.2854665
151,2707305,Municipio,"Porto Calvo",27009,"Mata Alagoana",2703,"Leste Alagoano",27,AL,Alagoas,2,NE,Nordeste,,57900000,57909999,,,82,27.165,"313,230","83,49",porto-calvense,"David Klevisson da Fonseca Silva Pedrosa","98,8 km","1 hora 45 minutos",-9.0469059,-35.4030749
152,2707404,Municipio,"Porto de Pedras",27010,"Litoral Norte Alagoano",2703,"Leste Alagoano",27,AL,Alagoas,2,NE,Nordeste,,57945000,57949999,,,82,7.786,"257,105","32,71",porto-pedrense,"Carlos Henrique Vilela de Vasconcelos","121 km","2 horas 9 minutos",-9.1605105,-35.3052144
153,2707503,Municipio,"Porto Real do Colégio",27013,Penedo,2703,"Leste Alagoano",27,AL,Alagoas,2,NE,Nordeste,,57290000,57299999,,,82,20.066,"236,677","80,38",colegiense,"Aldo Enio Borges","151 km","2 horas 20 minutos",-10.0581191,-36.702075
155,2707602,Municipio,Quebrangulo,27005,"Palmeira dos Índios",2702,"Agreste Alagoano",27,AL,Alagoas,2,NE,Nordeste,,57750000,57759999,,,82,11.294,"319,829","35,89",quebrangulense,"Marcelo Ricardo Vasconcelos Lima","125 km","2 horas 11 minutos",-9.3202687,-36.473847
158,2707701,Municipio,"Rio Largo",27011,Maceió,2703,"Leste Alagoano",27,AL,Alagoas,2,NE,Nordeste,,57100000,57119999,,,82,75.120,"293,816","223,56",rio-larguense,"Gilberto Gon&ccedil;alves da Silva","29,0 km","47 minutos",-9.4778777,-35.8369269
160,2707800,Municipio,Roteiro,27012,"São Miguel dos Campos",2703,"Leste Alagoano",27,AL,Alagoas,2,NE,Nordeste,,57257000,57259999,,,82,6.664,"128,814","51,48",roteirense,"Wladimir Chaves de Brito",,,,
162,2707909,Municipio,"Santa Luzia do Norte",27011,Maceió,2703,"Leste Alagoano",27,AL,Alagoas,2,NE,Nordeste,57130000,57130000,57139999,,,82,7.296,"28,857","232,77",nortense,"Edson Mateus da Silva","27,4 km","45 minutos",-9.6042074,-35.8227811
163,2708006,Municipio,"Santana do Ipanema",27003,"Santana do Ipanema",2701,"Sertão Alagoano",27,AL,Alagoas,2,NE,Nordeste,,57500000,57509999,,,82,47.654,"437,875","102,61",santanense,"Isnaldo Bulhoes Barros","210 km","3 horas 3 minutos",-9.3699579,-37.2474336
164,2708105,Municipio,"Santana do Mundaú",27008,"Serrana dos Quilombos",2703,"Leste Alagoano",27,AL,Alagoas,2,NE,Nordeste,57840000,57840000,57859999,,,82,10.740,"225,407","48,76",mundauense,"Arthur da Purifica&ccedil;&atilde;o Freitas Lopes","102 km","1 hora 56 minutos",-9.1397328,-36.1979764
166,2708204,Municipio,"São Brás",27007,Traipu,2702,"Agreste Alagoano",27,AL,Alagoas,2,NE,Nordeste,,57380000,57389999,,,82,6.961,"139,945","48,00",são-braense,"Marcos Sandes","187 km","2 horas 57 minutos",-10.1031045,-36.8465564
167,2708303,Municipio,"São José da Laje",27008,"Serrana dos Quilombos",2703,"Leste Alagoano",27,AL,Alagoas,2,NE,Nordeste,,57860000,57889999,,,82,23.927,"256,637","88,40",lajense,"Bruno Rodrigo Valen&ccedil;a de Ara&uacute;jo","105 km","1 hora 44 minutos",-8.9740524,-36.0240861
168,2708402,Municipio,"São José da Tapera",27003,"Santana do Ipanema",2701,"Sertão Alagoano",27,AL,Alagoas,2,NE,Nordeste,57445000,57445000,57459999,,,82,32.260,"494,498","60,77",taperense,"Jos&eacute; Antonio Cavalcante","236 km","3 horas 34 minutos",-9.517963,-37.5108091
169,2708501,Municipio,"São Luís do Quitunde",27009,"Mata Alagoana",2703,"Leste Alagoano",27,AL,Alagoas,2,NE,Nordeste,,57920000,57924999,,,82,34.555,"397,366","81,61",quitundense,"Fernanda Maria Silva Cavalcanti de Olive","56,0 km","1 hora 9 minutos",-9.309773,-35.5633711
170,2708600,Municipio,"São Miguel dos Campos",27012,"São Miguel dos Campos",2703,"Leste Alagoano",27,AL,Alagoas,2,NE,Nordeste,,57240001,57249999,,,82,61.251,"360,882","151,27",miguelense,"Pedro Ricardo Alves Jatob&aacute;","63,3 km","1 hora 5 minutos",-9.7625469,-36.1328132
171,2708709,Municipio,"São Miguel dos Milagres",27010,"Litoral Norte Alagoano",2703,"Leste Alagoano",27,AL,Alagoas,2,NE,Nordeste,57940000,57940000,57944999,,,82,7.951,"76,731","93,34","milagrense ou miguelense","Rubens Felisberto de Ataide Junior","94,6 km","1 hora 52 minutos",-9.2678356,-35.3746835
172,2708808,Municipio,"São Sebastião",27006,Arapiraca,2702,"Agreste Alagoano",27,AL,Alagoas,2,NE,Nordeste,,57275000,57279999,,,82,34.152,"315,167","101,59",salomeense,"Jos&eacute; Pacheco Filho","127 km","2 horas 1 minuto",-9.9547688,-36.5445805
175,2708907,Municipio,Satuba,27011,Maceió,2703,"Leste Alagoano",27,AL,Alagoas,2,NE,Nordeste,,57120000,57129999,,,82,13.828,"41,268","342,57",satubense,"Jose Paulino Acioly de Araujo","22,1 km","36 minutos",-9.5716318,-35.8248884
176,2708956,Municipio,"Senador Rui Palmeira",27003,"Santana do Ipanema",2701,"Sertão Alagoano",27,AL,Alagoas,2,NE,Nordeste,,57515000,57519999,,,82,13.870,"341,992","38,07",rui-palmeirense,"Jeane Oliveira Moura Silva Chagas","236 km","3 horas 31 minutos",-9.4701876,-37.4579456
181,2709004,Municipio,"Tanque D'Arca",27005,"Palmeira dos Índios",2702,"Agreste Alagoano",27,AL,Alagoas,2,NE,Nordeste,,57635000,57639999,,,82,6.162,"124,761","47,27",tanquense,"Wilmario Valen&ccedil;a Silva Junior","109 km","1 hora 48 minutos",-9.5602245,-36.4147889
182,2709103,Municipio,Taquarana,27006,Arapiraca,2702,"Agreste Alagoano",27,AL,Alagoas,2,NE,Nordeste,,57640000,57659999,,,82,19.980,"153,702","114,55",taquaranense,"Sebasti&atilde;o Antonio da Silva","117 km","1 hora 49 minutos",-9.6451013,-36.4903116
184,2709152,Municipio,"Teotônio Vilela",27012,"São Miguel dos Campos",2703,"Leste Alagoano",27,AL,Alagoas,2,NE,Nordeste,,57265000,57269999,,,82,44.169,"299,222","138,15",vilelano,"Jo&atilde;o Jos&eacute; Pereira Filho","101 km","1 hora 38 minutos",-9.9084691,-36.359772
185,2709202,Municipio,Traipu,27007,Traipu,2702,"Agreste Alagoano",27,AL,Alagoas,2,NE,Nordeste,,57370000,57379999,,,82,27.715,"686,050","36,82",traipusense,"Eduardo Tavares Mendes","187 km","2 horas 59 minutos",-9.9711733,-37.0036526
186,2709301,Municipio,"União dos Palmares",27008,"Serrana dos Quilombos",2703,"Leste Alagoano",27,AL,Alagoas,2,NE,Nordeste,,57800000,57819999,,,82,65.611,"420,720","148,24",palmarino,"Areski Damara de Omena Freitas Junior","79,6 km","1 hora 25 minutos",-9.1610344,-36.0166255
188,2709400,Municipio,Viçosa,27008,"Serrana dos Quilombos",2703,"Leste Alagoano",27,AL,Alagoas,2,NE,Nordeste,,57700000,57719999,,,82,25.733,"371,612","74,00",viçosense,"David Daniel Vasconcelos Brand&atilde;o de Alme","90,6 km","1 hora 32 minutos",-9.3740018,-36.2419469
191,1300029,Municipio,Alvarães,13005,Tefé,1303,"Centro Amazonense",13,AM,Amazonas,1,N,Norte,,69540000,69549999,,,97,16.041,"5.923,461","2,38",alvarãense,"Edy Rubem Tomas Barboza",,,-3.2157685,-64.8162083
193,1300060,Municipio,Amaturá,13003,"Alto Solimões",1302,"Sudoeste Amazonense",13,AM,Amazonas,1,N,Norte,,69620000,69629999,,,97,11.536,"4.754,109","1,99",amaturaense,"Joaquim Francisco da Silva Corado",,,-3.3657389,-68.1994227
194,1300086,Municipio,Anamã,13006,Coari,1303,"Centro Amazonense",13,AM,Amazonas,1,N,Norte,,69445000,69449999,,,97,13.614,"2.446,121","4,16",anamãense,"Francisco Nunes Bastos",,,-3.5155735,-61.7941232
195,1300102,Municipio,Anori,13006,Coari,1303,"Centro Amazonense",13,AM,Amazonas,1,N,Norte,,69440000,69444999,,,97,21.010,"6.036,380","2,82",anoriense,"Jamilson Ribeiro Carvalho",,,-3.7481626,-61.6587244
196,1300144,Municipio,Apuí,13013,Madeira,1304,"Sul Amazonense",13,AM,Amazonas,1,N,Norte,,69265000,69279999,,,97,21.973,"54.240,556","0,33",apuiense,"Adimilson Nogueira","1.096 km","17 horas 28 minutos",-7.1996142,-59.8918669
198,1300201,Municipio,"Atalaia do Norte",13003,"Alto Solimões",1302,"Sudoeste Amazonense",13,AM,Amazonas,1,N,Norte,,69650000,69659999,,,97,19.921,"76.435,093","0,20",atalaiense,"Nonato do Nascimento Tenazor",,,-4.3655403,-70.1924957
200,1300300,Municipio,Autazes,13007,Manaus,1303,"Centro Amazonense",13,AM,Amazonas,1,N,Norte,,69240000,69249999,,,92,39.565,"7.652,852","4,23",autazense,"Andreson Adriano Oliveira Cavalcante",,,-3.5834304,-59.1288534
204,1300409,Municipio,Barcelos,13001,"Rio Negro",1301,"Norte Amazonense",13,AM,Amazonas,1,N,Norte,,69700000,69729999,,,97,27.502,"122.461,086","0,21",barcelense,"Edson de Paula Rodrigues Mendes",,,-0.973993,-62.9255717
205,1300508,Municipio,Barreirinha,13010,Parintins,1303,"Centro Amazonense",13,AM,Amazonas,1,N,Norte,,69160000,69179999,,,92,32.041,"5.751,765","4,76",barreirinhense,"Glenio Jos&eacute; Marques Seixas",,,-3.0793652,-57.1915504
206,1300607,Municipio,"Benjamin Constant",13003,"Alto Solimões",1302,"Sudoeste Amazonense",13,AM,Amazonas,1,N,Norte,,69630000,69639999,,,97,42.984,"8.695,392","3,80",benjamin-constantense,"David Nunes Bemerguy",,,-4.5204349,-69.9550338
207,1300631,Municipio,Beruri,13006,Coari,1303,"Centro Amazonense",13,AM,Amazonas,1,N,Norte,,69430000,69434999,,,97,19.679,"17.472,785","0,90",beruriense,"Maria Lucir Santos de Oliveira",,,-3.8983524,-61.37411
208,1300680,Municipio,"Boa Vista do Ramos",13010,Parintins,1303,"Centro Amazonense",13,AM,Amazonas,1,N,Norte,,69195000,69199999,,,92,19.207,"2.589,407","5,79",boa-vistense,"Eraldo Trindade da Silva",,,-2.9715711,-57.5857691
209,1300706,Municipio,"Boca do Acre",13011,"Boca do Acre",1304,"Sul Amazonense",13,AM,Amazonas,1,N,Norte,,69850000,69859999,,,97,34.308,"21.938,591","1,40",bocacrense,"Jose Maria Silva da Cruz","1.557 km","22 horas 58 minutos",-8.7488324,-67.3994582
210,1300805,Municipio,Borba,13013,Madeira,1304,"Sul Amazonense",13,AM,Amazonas,1,N,Norte,,69200000,69229999,,,92,41.161,"44.236,184","0,79",borbense,"Sim&atilde;o Peixoto Lima",,,-4.6497952,-59.4720904
211,1300839,Municipio,Caapiranga,13006,Coari,1303,"Centro Amazonense",13,AM,Amazonas,1,N,Norte,,69425000,69429999,,,92,13.081,"9.455,539","1,16",caapiranguense,"Antonio Ferreira Lima",,,-3.3265913,-61.2130841
214,1300904,Municipio,Canutama,13012,Purus,1304,"Sul Amazonense",13,AM,Amazonas,1,N,Norte,,69820000,69829999,,,97,15.629,"33.642,597","0,43",canutamense,"Otaniel Lyra de Oliveira",,,-7.3175297,-63.9586111
215,1301001,Municipio,Carauari,13004,Juruá,1302,"Sudoeste Amazonense",13,AM,Amazonas,1,N,Norte,,69500000,69509999,,,97,28.294,"25.778,658","1,00",carauariense,"Bruno Luis Litaiff Ramalho",,,-4.881702,-66.9045726
216,1301100,Municipio,Careiro,13007,Manaus,1303,"Centro Amazonense",13,AM,Amazonas,1,N,Norte,,69250000,69254999,,,92,37.869,"6.096,210","5,37",careirense,"Nathan Macena de Souza","124 km","2 horas 34 minutos",-3.8194468,-60.3612359
217,1301159,Municipio,"Careiro da Várzea",13007,Manaus,1303,"Centro Amazonense",13,AM,Amazonas,1,N,Norte,,69255000,69259999,,,92,30.225,"2.627,474","9,09",careirense-da-várzea,"Pedro Duarte Guedes",,,-3.1973653,-59.8262169
219,1301209,Municipio,Coari,13006,Coari,1303,"Centro Amazonense",13,AM,Amazonas,1,N,Norte,,69460000,69469999,,,97,85.097,"57.970,768","1,31",coariense,"Adail Jose Figueiredo Pinheiro",,,-4.0912758,-63.1483401
220,1301308,Municipio,Codajás,13006,Coari,1303,"Centro Amazonense",13,AM,Amazonas,1,N,Norte,,69450000,69459999,,,97,28.637,"18.700,713","1,24",codajasense,"Abraham Lincoln Dib Bastos",,,-3.8400079,-62.0610225
222,1301407,Municipio,Eirunepé,13004,Juruá,1302,"Sudoeste Amazonense",13,AM,Amazonas,1,N,Norte,,69880000,69889999,,,97,35.273,"14.966,244","2,04",eirunepeense,"Raylan Barroso de Alencar",,,-6.6618796,-69.8674865
223,1301506,Municipio,Envira,13004,Juruá,1302,"Sudoeste Amazonense",13,AM,Amazonas,1,N,Norte,,69870000,69879999,,,97,20.033,"7.505,807","2,18",envirense,"Ivon Rates da Silva",,,-7.4360807,-70.0228018
225,1301605,Municipio,"Fonte Boa",13003,"Alto Solimões",1302,"Sudoeste Amazonense",13,AM,Amazonas,1,N,Norte,,69670000,69679999,,,97,17.609,"12.155,427","1,88",fonte-boense,"Gilberto Ferreira Lisboa",,,-2.515248,-66.095866
227,1301654,Municipio,Guajará,13004,Juruá,1302,"Sudoeste Amazonense",13,AM,Amazonas,1,N,Norte,,69895000,69899999,,,97,16.678,"7.583,720","1,84",guajaraense,"Ordean Gonzaga da Silva",,,-7.1919754,-72.8042797
228,1301704,Municipio,Humaitá,13013,Madeira,1304,"Sul Amazonense",13,AM,Amazonas,1,N,Norte,,69800000,69819999,,,97,55.080,"33.111,143","1,34",humaitaense,"Herivaneo Vieira de Oliveira","696 km","11 horas 13 minutos",-7.5169382,-63.0298428
231,1301803,Municipio,Ipixuna,13004,Juruá,1302,"Sudoeste Amazonense",13,AM,Amazonas,1,N,Norte,,69890000,69894999,,,97,29.689,"12.109,777","1,85",ipixunense,"Maria do Socorro de Paula Oliveira",,,-7.0495648,-71.6924614
232,1301852,Municipio,Iranduba,13007,Manaus,1303,"Centro Amazonense",13,AM,Amazonas,1,N,Norte,,69415000,69424999,,,92,48.296,"2.216,817","18,42",irandubense,"Francisco Gomes da Silva","37,0 km","45 minutos",-3.2756589,-60.1908926
233,1301902,Municipio,Itacoatiara,13009,Itacoatiara,1303,"Centro Amazonense",13,AM,Amazonas,1,N,Norte,,69100001,69113999,,,92,101.337,"8.891,906","9,77",itacoatiarense,"Antonio Peixoto de Oliveira",,,-3.3339824,-58.5543821
234,1301951,Municipio,Itamarati,13004,Juruá,1302,"Sudoeste Amazonense",13,AM,Amazonas,1,N,Norte,,69510000,69519999,,,97,7.851,"25.260,429","0,32",itamaratiense,"Antonio Maia da Silva",,,-6.7390668,-67.952363
235,1302009,Municipio,Itapiranga,13009,Itacoatiara,1303,"Centro Amazonense",13,AM,Amazonas,1,N,Norte,,69120000,69129999,,,92,9.148,"4.335,075","1,94",itapiranguense,"Denise de Farias Lima","340 km","4 horas 43 minutos",-2.7465752,-58.027863
236,1302108,Municipio,Japurá,13002,Japurá,1301,"Norte Amazonense",13,AM,Amazonas,1,N,Norte,,69495000,69499999,,,97,2.755,"55.827,207","0,13",japuraense,"Gracineide Lopes de Souza",,,-1.9962324,-68.5247149
237,1302207,Municipio,Juruá,13004,Juruá,1302,"Sudoeste Amazonense",13,AM,Amazonas,1,N,Norte,,69520000,69529999,,,97,14.712,"19.442,548","0,56",juruaense,"Jose Maria Rodrigues da Rocha Junior",,,-3.5811865,-66.4271499
238,1302306,Municipio,Jutaí,13003,"Alto Solimões",1302,"Sudoeste Amazonense",13,AM,Amazonas,1,N,Norte,,69660000,69669999,,,97,14.317,"69.457,415","0,26",jutaiense,"Pedro Macario Barboza",,,-4.4008685,-68.5247149
239,1302405,Municipio,Lábrea,13012,Purus,1304,"Sul Amazonense",13,AM,Amazonas,1,N,Norte,,69830000,69849999,,,97,46.069,"68.262,696","0,55",labrense,"Gean Campos de Barros",,,-8.6977958,-65.475736
241,1302504,Municipio,Manacapuru,13007,Manaus,1303,"Centro Amazonense",13,AM,Amazonas,1,N,Norte,,69400001,69414999,,,92,97.377,"7.336,579","11,62",manacapuruense,"Betanael da Silva Dangelo","98,3 km","1 hora 29 minutos",-3.2897455,-60.6320881
242,1302553,Municipio,Manaquiri,13007,Manaus,1303,"Centro Amazonense",13,AM,Amazonas,1,N,Norte,,69435000,69439999,,,92,32.105,"3.973,259","5,73",manaquirense,"Jair Aguiar Souto","156 km","2 horas 58 minutos",-3.4359923,-60.4576779
243,1302603,Municipio,Manaus,13007,Manaus,1303,"Centro Amazonense",13,AM,Amazonas,1,N,Norte,,69000001,69099999,,,92,2.182.763,"11.401,092","158,06",manauara,"Arthur Virgilio do Carmo Ribeiro Neto","1 m","1 min",-3.1190275,-60.0217314
244,1302702,Municipio,Manicoré,13013,Madeira,1304,"Sul Amazonense",13,AM,Amazonas,1,N,Norte,,69280000,69299999,,,97,55.751,"48.315,021","0,97",manicoreense,"Manuel Sebasti&atilde;o Pimentel de Medeiros",,,-6.5112455,-60.9540073
245,1302801,Municipio,Maraã,13002,Japurá,1301,"Norte Amazonense",13,AM,Amazonas,1,N,Norte,,69490000,69494999,,,97,18.224,"16.830,827","1,04",maraãense,"Luiz Magno Praiano Moraes",,,-1.8508396,-65.5913464
247,1302900,Municipio,Maués,13010,Parintins,1303,"Centro Amazonense",13,AM,Amazonas,1,N,Norte,,69190000,69194999,,,92,63.905,"39.991,066","1,31",maueense,"Carlos Roberto de Oliveira J&uacute;nior",,,-3.3854447,-57.7169581
251,1303007,Municipio,Nhamundá,13010,Parintins,1303,"Centro Amazonense",13,AM,Amazonas,1,N,Norte,,69140000,69149999,,,92,21.173,"14.107,040","1,30",nhamundaense,"Gledson Hadson Paulain Machado",,,-2.2268548,-57.1876349
252,1303106,Municipio,"Nova Olinda do Norte",13009,Itacoatiara,1303,"Centro Amazonense",13,AM,Amazonas,1,N,Norte,,69230000,69239999,,,92,37.378,"5.578,132","5,47",olindense,"Adenilson Lima Reis",,,-3.8924201,-59.0918517
253,1303205,Municipio,"Novo Airão",13001,"Rio Negro",1301,"Norte Amazonense",13,AM,Amazonas,1,N,Norte,,69730000,69734999,,,92,19.454,"37.776,770","0,39",novo-airãoense,"Roberto Frederico Paes Junior","194 km","2 horas 50 minutos",-2.6278686,-60.9423918
254,1303304,Municipio,"Novo Aripuanã",13013,Madeira,1304,"Sul Amazonense",13,AM,Amazonas,1,N,Norte,,69260000,69264999,,,97,25.644,"41.179,656","0,52",novo-airãoense,"Jocione do Santos Souza","1.211 km","19 horas 14 minutos",-6.3019793,-60.0259466
256,1303403,Municipio,Parintins,13010,Parintins,1303,"Centro Amazonense",13,AM,Amazonas,1,N,Norte,,69150001,69159999,,,92,114.273,"5.956,047","17,14",parintinense,"Frank Luiz da Cunha Garcia",,,-2.633616,-56.7319696
257,1303502,Municipio,Pauini,13011,"Boca do Acre",1304,"Sul Amazonense",13,AM,Amazonas,1,N,Norte,,69860000,69869999,,,97,19.426,"41.624,668","0,44",pauiniense,"Eliana Oliveira Amorim",,,-7.712536,-67.0005795
259,1303536,Municipio,"Presidente Figueiredo",13008,"Rio Preto da Eva",1303,"Centro Amazonense",13,AM,Amazonas,1,N,Norte,,69735000,69739999,,,92,36.279,"25.459,099","1,07",figueiredense,"Romeiro Jose Costeira de Mendonca","126 km","1 hora 49 minutos",-2.0533403,-60.0238349
261,1303569,Municipio,"Rio Preto da Eva",13008,"Rio Preto da Eva",1303,"Centro Amazonense",13,AM,Amazonas,1,N,Norte,,69117000,69119999,,,92,33.347,"5.815,622","4,42",rio-pretense,"Anderson Jos&eacute; de Souza","81,0 km","1 hora 20 minutos",-2.6981683,-59.6993705
262,1303601,Municipio,"Santa Isabel do Rio Negro",13001,"Rio Negro",1301,"Norte Amazonense",13,AM,Amazonas,1,N,Norte,,69740000,69749999,,,97,25.156,"62.800,079","0,29",santa-isabelense,"Araildo Mendes do Nascimento",,,-0.2725526,-65.475736
264,1303700,Municipio,"Santo Antônio do Içá",13003,"Alto Solimões",1302,"Sudoeste Amazonense",13,AM,Amazonas,1,N,Norte,,69680000,69684999,,,97,21.602,"12.366,143","1,99",santoense,"Abra&atilde;o Magalh&atilde;es Lasmar",,,-3.102811,-67.946675
266,1303809,Municipio,"São Gabriel da Cachoeira",13001,"Rio Negro",1301,"Norte Amazonense",13,AM,Amazonas,1,N,Norte,,69750000,69799999,,,97,45.564,"109.181,240","0,35",são-gabrielense,"Clovis Moreira Saldanha",,,-0.1155659,-67.0883053
267,1303908,Municipio,"São Paulo de Olivença",13003,"Alto Solimões",1302,"Sudoeste Amazonense",13,AM,Amazonas,1,N,Norte,,69600000,69619999,,,97,39.299,"19.658,502","1,59",paulivense,"Paulo de Oliveira Mafra",,,-3.6499007,-69.097023
268,1303957,Municipio,"São Sebastião do Uatumã",13010,Parintins,1303,"Centro Amazonense",13,AM,Amazonas,1,N,Norte,,69135000,69139999,,,92,14.020,"10.647,463","1,00",uatumaense,"Fernando Falabella",,,-2.5616153,-57.8732879
269,1304005,Municipio,Silves,13009,Itacoatiara,1303,"Centro Amazonense",13,AM,Amazonas,1,N,Norte,,69114000,69116999,,,92,9.171,"3.723,382","2,25",silvense,"Aristides Queiroz de Oliveira Neto",,,-2.8354831,-58.2177292
270,1304062,Municipio,Tabatinga,13003,"Alto Solimões",1302,"Sudoeste Amazonense",13,AM,Amazonas,1,N,Norte,,69640000,69649999,,,97,65.844,"3.266,062","16,21",tabatinguense,"Saul Nunes Bemerguy",,,-4.2289308,-69.9367014
271,1304104,Municipio,Tapauá,13012,Purus,1304,"Sul Amazonense",13,AM,Amazonas,1,N,Norte,,69480000,69484999,,,97,17.156,"84.946,166","0,21",tapauense,"Jos&eacute; Bezerra Guedes",,,-5.625068,-63.1890514
272,1304203,Municipio,Tefé,13005,Tefé,1303,"Centro Amazonense",13,AM,Amazonas,1,N,Norte,,69550001,69559999,,,97,59.849,"23.692,223","2,59",tefeense,"Normando Bessa de Sa",,,-4.4606478,-65.6658568
273,1304237,Municipio,Tonantins,13003,"Alto Solimões",1302,"Sudoeste Amazonense",13,AM,Amazonas,1,N,Norte,,69685000,69699999,,,97,18.755,"6.446,894","2,66",tonantinense,"Lazaro de Souza Martins",,,-2.7915832,-67.6662231
274,1304260,Municipio,Uarini,13005,Tefé,1303,"Centro Amazonense",13,AM,Amazonas,1,N,Norte,,69530000,69539999,,,97,13.540,"10.274,677","1,16",uarinense,"Antonio Waldetrudes Uchoa de Brito",,,-3.1828365,-65.3807101
275,1304302,Municipio,Urucará,13010,Parintins,1303,"Centro Amazonense",13,AM,Amazonas,1,N,Norte,,69130000,69134999,,,92,16.256,"27.901,962","0,61",urucaraense,"Enrico de Souza Falabella",,,-0.910165,-59.2879977
276,1304401,Municipio,Urucurituba,13009,Itacoatiara,1303,"Centro Amazonense",13,AM,Amazonas,1,N,Norte,,69180000,69189999,,,92,23.065,"2.886,494","6,14",urucuritubense,"Jose Claudenor de Castro Pontes",,,-3.1286852,-58.1551349
280,1600105,Municipio,Amapá,16002,Amapá,1601,"Norte do Amapá",16,AP,Amapá,1,N,Norte,,68950000,68959999,,,96,9.109,"8.454,847","0,88",amapaense,"Carlos Sampaio Duarte","208 km","3 horas 11 minutos",0.9019925,-52.0029565
281,1600154,Municipio,"Pedra Branca do Amaparí",16003,Macapá,1602,"Sul do Amapá",16,AP,Amapá,1,N,Norte,,68945000,68947999,,,96,16.502,"9.622,290","1,13",pedrabrancanienses,"Elizabeth Pelaes dos Santos","189 km","2 horas 39 minutos",0.7787281,-51.9610865
287,1600204,Municipio,Calçoene,16001,Oiapoque,1601,"Norte do Amapá",16,AP,Amapá,1,N,Norte,,68960000,68972999,,,96,11.117,"14.117,297","0,63",calçoenense,"Jones F&aacute;bio Nunes Cavalcante","374 km","4 horas 54 minutos",2.4965404,-50.9556918
294,1600212,Municipio,Cutias,16003,Macapá,1602,"Sul do Amapá",16,AP,Amapá,1,N,Norte,,68973000,68975999,,,96,5.983,"2.179,114","2,22",cutienses,"Raimundo Barbosa Amanaj&aacute;s Filho",,,1.022885,-50.3894858
296,1600238,Municipio,"Ferreira Gomes",16003,Macapá,1602,"Sul do Amapá",16,AP,Amapá,1,N,Norte,,68915000,68917999,,,96,7.780,"4.973,852","1,15",ferreirense,"Jo&atilde;o &aacute;lvaro Rocha Rodrigues","140 km","1 hora 47 minutos",0.8588146,-51.1812701
303,1600253,Municipio,Itaubal,16003,Macapá,1602,"Sul do Amapá",16,AP,Amapá,1,N,Norte,,68976000,68979999,,,96,5.503,"1.622,867","2,50",itaubenses,"Victor Hugo Lopes Rodrigues","112 km","1 hora 32 minutos",0.6016406,-50.6993472
304,1600279,Municipio,"Laranjal do Jari",16004,Mazagão,1602,"Sul do Amapá",16,AP,Amapá,1,N,Norte,,68920000,68923999,,,96,50.410,"30.782,998","1,29",laranjalense,"Marcio Clay da Costa Serr&atilde;o","268 km","4 horas 16 minutos",-0.8397632,-52.5189943
307,1600303,Municipio,Macapá,16003,Macapá,1602,"Sul do Amapá",16,AP,Amapá,1,N,Norte,,68900001,68914999,,,96,503.327,"6.563,849","62,14",macapaense,"Cl&eacute;cio Lu&iacute;s Vilhena Vieira","1 m","1 min",0.0355735,-51.070535
308,1600402,Municipio,Mazagão,16004,Mazagão,1602,"Sul do Amapá",16,AP,Amapá,1,N,Norte,,68940000,68944999,,,96,21.632,"13.294,778","1,30",mazaganistas,"Jo&atilde;o da Silva Costa","34,1 km","40 minutos",-0.1157293,-51.2862328
310,1600501,Municipio,Oiapoque,16001,Oiapoque,1601,"Norte do Amapá",16,AP,Amapá,1,N,Norte,,68980000,68989999,,,96,27.270,"23.034,392","0,91",oiapoquenses,"Maria Orlanda Marques Garcia","589 km","7 horas 56 minutos",3.8441774,-51.8322886
312,1600535,Municipio,"Porto Grande",16003,Macapá,1602,"Sul do Amapá",16,AP,Amapá,1,N,Norte,,68997000,68999999,,,96,21.971,"4.428,013","3,82",portograndenses,"Jose Maria Bessa de Oliveira","114 km","1 hora 28 minutos",0.7049424,-51.4082757
313,1600550,Municipio,Pracuúba,16002,Amapá,1601,"Norte do Amapá",16,AP,Amapá,1,N,Norte,,68918000,68919999,,,96,5.120,"4.948,511","0,77",pracuubenses,"Belize Concei&ccedil;&atilde;o Costa Ramos","276 km","3 horas 41 minutos",1.7430346,-50.7849572
316,1600600,Municipio,Santana,16003,Macapá,1602,"Sul do Amapá",16,AP,Amapá,1,N,Norte,,68925001,68939999,,,96,121.364,"1.541,224","64,11",santanenses,"Ofirney da Concei&ccedil;&atilde;o Sadala","19,8 km","27 minutos",-0.0371861,-51.1727439
322,1600709,Municipio,Tartarugalzinho,16002,Amapá,1601,"Norte do Amapá",16,AP,Amapá,1,N,Norte,,68990000,68996999,,,96,17.315,"6.684,705","1,87",tartarugalense,"Rildo Gomes de Oliveira","241 km","3 horas 30 minutos",1.2998516,-50.8456323
324,1600808,Municipio,"Vitória do Jari",16004,Mazagão,1602,"Sul do Amapá",16,AP,Amapá,1,N,Norte,,68924000,68924999,,,96,15.931,"2.508,979","5,01",vitorenses,"Raimundo de Alcimar Ney de Souza",,,-0.9263732,-52.4239856
326,2900108,Municipio,Abaíra,29023,Seabra,2906,"Centro Sul Baiano",29,BA,Bahia,2,NE,Nordeste,,46690000,46699999,,,77,8.739,"538,677","15,68",abairense,"Edval Luz Silva","554 km","7 horas 14 minutos",-13.2782057,-41.7407394
327,2900207,Municipio,Abaré,29005,"Paulo Afonso",2902,"Vale São-Franciscano da Bahia",29,BA,Bahia,2,NE,Nordeste,,48680000,48699999,,,75,20.086,"1.604,923","11,49",abareense,"Fernando Jose Teixeira Tolentino","530 km","7 horas 40 minutos",-8.7907474,-39.2791011
331,2900306,Municipio,Acajutiba,29017,Alagoinhas,2904,"Nordeste Baiano",29,BA,Bahia,2,NE,Nordeste,,48360000,48369999,,,75,15.159,"181,475","81,34",acajutibense,"Alexsandro Menezes de Freitas","188 km","2 horas 59 minutos",-11.6658608,-37.9996401
335,2900355,Municipio,Adustina,29015,"Ribeira do Pombal",2904,"Nordeste Baiano",29,BA,Bahia,2,NE,Nordeste,,48435000,48439999,,,75,17.040,"632,139","24,84",adustinense,"Paulo Sergio Oliveira dos Santos","368 km","5 horas 14 minutos",-10.5356783,-38.1144747
339,2900405,Municipio,"Água Fria",29012,"Feira de Santana",2903,"Centro Norte Baiano",29,BA,Bahia,2,NE,Nordeste,,48170000,48179999,,,75,16.970,"743,014","23,77",água-friense,"Manoel Alves dos Santos","158 km","2 horas 28 minutos",-11.8690373,-38.7616009
341,2900603,Municipio,Aiquara,29024,Jequié,2906,"Centro Sul Baiano",29,BA,Bahia,2,NE,Nordeste,,45220000,45224999,,,73,4.446,"167,877","28,82",aiquarense,"Jositan Pimentel Santos","310 km","5 horas 56 minutos",-14.1255654,-39.8902535
342,2900702,Municipio,Alagoinhas,29017,Alagoinhas,2904,"Nordeste Baiano",29,BA,Bahia,2,NE,Nordeste,,48000001,48107999,,,75,151.596,"707,558","188,67",alagoinhense,"Joaquim Belarmino Cardoso Neto","124 km","1 hora 55 minutos",-12.1339689,-38.4211223
343,2900801,Municipio,Alcobaça,29032,"Porto Seguro",2907,"Sul Baiano",29,BA,Bahia,2,NE,Nordeste,,45910000,45919999,,,73,22.470,"1.482,285","14,36",alcobacense,"Leonardo Coelho Brito","723 km","11 horas 49 minutos",-17.4549458,-39.4035876
347,2900900,Municipio,Almadina,29031,Ilhéus-Itabuna,2907,"Sul Baiano",29,BA,Bahia,2,NE,Nordeste,45640000,45640000,45644999,,,73,5.464,"245,236","25,32",almadinense,"Milton Silva Cerqueira","347 km","6 horas 27 minutos",-14.7026518,-39.6382322
351,2901007,Municipio,Amargosa,29024,Jequié,2906,"Centro Sul Baiano",29,BA,Bahia,2,NE,Nordeste,,45300000,45304999,,,75,37.241,"431,673","74,16",amargosense,"Julio Pinheiro dos Santos Junior","163 km","3 horas 46 minutos",-13.0297607,-39.6020935
352,2901106,Municipio,"Amélia Rodrigues",29019,Catu,2905,"Metropolitana de Salvador",29,BA,Bahia,2,NE,Nordeste,,44230000,44244999,,,75,25.102,"173,484","145,20",ameliense,"Paulo Cesar Bahia Falc&atilde;o","94,6 km","1 hora 22 minutos",-12.417342,-38.7158702
353,2901155,Municipio,"América Dourada",29009,Irecê,2903,"Centro Norte Baiano",29,BA,Bahia,2,NE,Nordeste,,44910000,44914999,,,74,16.094,"822,373","19,05",américo-douradense,"Rosa Maria Dourado Lopes","445 km","5 horas 31 minutos",-11.4739063,-41.5147461
355,2901205,Municipio,Anagé,29028,"Vitória da Conquista",2906,"Centro Sul Baiano",29,BA,Bahia,2,NE,Nordeste,,45180000,45189999,,,77,22.005,"1.336,361","13,10",anageense,"Elen Zite Pereira dos Santos","541 km","7 horas 3 minutos",-14.6156615,-41.1397197
356,2901304,Municipio,Andaraí,29023,Seabra,2906,"Centro Sul Baiano",29,BA,Bahia,2,NE,Nordeste,,46830000,46834999,,,75,13.143,"1.590,316","7,50",andaraiense,"Jo&atilde;o Lucio Passos Carneiro","409 km","5 horas 11 minutos",-12.6650885,-41.2004878
357,2901353,Municipio,Andorinha,29008,"Senhor do Bonfim",2903,"Centro Norte Baiano",29,BA,Bahia,2,NE,Nordeste,,48990000,48999999,,,74,14.595,"1.362,386","11,55",andorinhense,"Renato Brand&atilde;o de Oliveira","447 km","6 horas 16 minutos",-10.3491989,-39.8392279
358,2901403,Municipio,Angical,29002,Cotegipe,2901,"Extremo Oeste Baiano",29,BA,Bahia,2,NE,Nordeste,,47960000,47969999,,,77,13.977,"1.530,050","9,21",angicalense,"Gilson Bezerra de Souza","854 km","11 horas 31 minutos",-12.0073749,-44.6986014
360,2901502,Municipio,Anguera,29012,"Feira de Santana",2903,"Centro Norte Baiano",29,BA,Bahia,2,NE,Nordeste,,44670000,44679999,,,75,11.221,"187,840","57,85",anguerense,"Fernando Bispo Ramos","156 km","2 horas 3 minutos",-12.1516416,-39.2473797
361,2901601,Municipio,Antas,29015,"Ribeira do Pombal",2904,"Nordeste Baiano",29,BA,Bahia,2,NE,Nordeste,,48420000,48429999,,,75,19.291,"321,606","53,08",antense,"Manoel Sidonio Nascimento Nilo","347 km","4 horas 56 minutos",-10.410047,-38.3321596
362,2901700,Municipio,"Antônio Cardoso",29012,"Feira de Santana",2903,"Centro Norte Baiano",29,BA,Bahia,2,NE,Nordeste,,44180000,44189999,,,75,11.683,"293,530","39,24",cardosense,"Antonio M&aacute;rio Rodrigues de Sousa","147 km","1 hora 57 minutos",-12.4359315,-39.120313
363,2901809,Municipio,"Antônio Gonçalves",29008,"Senhor do Bonfim",2903,"Centro Norte Baiano",29,BA,Bahia,2,NE,Nordeste,,44780000,44789999,,,74,11.798,"345,283","35,09",antônio-gonçalvense,"Roberto Carlos Dantas Lima","420 km","5 horas 46 minutos",-10.5702021,-40.2727637
364,2901908,Municipio,Aporá,29017,Alagoinhas,2904,"Nordeste Baiano",29,BA,Bahia,2,NE,Nordeste,,48350000,48359999,,,75,17.731,"479,262","31,56",aporense,"Ivonei Raimundo dos Santos","193 km","2 horas 50 minutos",-11.7082543,-38.2110938
365,2901957,Municipio,Apuarema,29024,Jequié,2906,"Centro Sul Baiano",29,BA,Bahia,2,NE,Nordeste,,45355000,45359999,,,73,7.330,"150,830","48,17",apuaremense,"Raival Pinheiro de Oliveira","266 km","4 horas 55 minutos",-13.8554594,-39.7443601
366,2902054,Municipio,Araçás,29017,Alagoinhas,2904,"Nordeste Baiano",29,BA,Bahia,2,NE,Nordeste,,48108000,48109999,,,75,12.177,"474,660","23,73",araçaense,"Maria das Gra&ccedil;as Trindade Leal","106 km","1 hora 43 minutos",-12.2113492,-38.2034519
367,2902005,Municipio,Aracatu,29027,Brumado,2906,"Centro Sul Baiano",29,BA,Bahia,2,NE,Nordeste,,46130000,46139999,,,77,13.135,"1.489,804","9,22",aracatuense,"S&eacute;rgio Silveira Maia","526 km","7 horas 27 minutos",-14.3679321,-41.401196
368,2902104,Municipio,Araci,29016,Serrinha,2904,"Nordeste Baiano",29,BA,Bahia,2,NE,Nordeste,,48760000,48769999,,,75,54.379,"1.495,554","33,19",araciense,"Antonio Carvalho da Silva Neto","221 km","3 horas 26 minutos",-11.3394721,-38.9586423
369,2902203,Municipio,Aramari,29017,Alagoinhas,2904,"Nordeste Baiano",29,BA,Bahia,2,NE,Nordeste,,48130000,48139999,,,75,11.397,"368,948","30,44",aramariense,"Fidel Carlos Souza Dantas","135 km","2 horas 10 minutos",-12.0883267,-38.4977507
371,2902252,Municipio,Arataca,29031,Ilhéus-Itabuna,2907,"Sul Baiano",29,BA,Bahia,2,NE,Nordeste,,45695000,45699999,,,73,11.019,"435,962","27,70",arataquense,"Katiana Pinto de Oliveira","382 km","6 horas 41 minutos",-15.2579888,-39.4243113
372,2902302,Municipio,Aratuípe,29020,"Santo Antônio de Jesus",2905,"Metropolitana de Salvador",29,BA,Bahia,2,NE,Nordeste,,44490000,44499999,,,75,8.825,"174,012","47,47",aratuipense,"Antonio Miranda Silva Junior","84,9 km","2 horas 3 minutos",-13.0778146,-39.0008878
379,2902401,Municipio,"Aurelino Leal",29031,Ilhéus-Itabuna,2907,"Sul Baiano",29,BA,Bahia,2,NE,Nordeste,,45675000,45679999,,,73,11.531,"445,394","29,70",aurelinense,"Elizangela Ramos Andrade Garcia","283 km","5 horas 36 minutos",-14.367911,-39.465738
380,2902500,Municipio,Baianópolis,29001,Barreiras,2901,"Extremo Oeste Baiano",29,BA,Bahia,2,NE,Nordeste,,47830000,47844999,,,77,13.877,"3.320,723","4,14",baianopolense,"Jandira Soares Silva Xavier","851 km","11 horas 49 minutos",-12.6593306,-44.3996944
382,2902609,Municipio,"Baixa Grande",29011,Itaberaba,2903,"Centro Norte Baiano",29,BA,Bahia,2,NE,Nordeste,,44620000,44629999,,,74,20.468,"967,514","21,19",baixa-grandense,"Heraldo Alves Miranda","263 km","3 horas 18 minutos",-11.9599871,-40.1679045
391,2902658,Municipio,Banzaê,29015,"Ribeira do Pombal",2904,"Nordeste Baiano",29,BA,Bahia,2,NE,Nordeste,,48405000,48409999,,,75,13.229,"409,507","51,92",banzaêense,"Jailma Dantas Gama Alves","326 km","4 horas 49 minutos",-10.580403,-38.6131871
394,2902708,Municipio,Barra,29006,Barra,2902,"Vale São-Franciscano da Bahia",29,BA,Bahia,2,NE,Nordeste,,47100000,47114999,,,74,53.578,"11.422,537","4,32",barrense,"Deonisio Ferreira de Assis","676 km","8 horas 54 minutos",-11.0897504,-43.139032
395,2902807,Municipio,"Barra da Estiva",29023,Seabra,2906,"Centro Sul Baiano",29,BA,Bahia,2,NE,Nordeste,,46650000,46669999,,,77,20.598,"1.657,413","15,73",barrestivense,"Jo&atilde;o Machado Ribeiro","465 km","6 horas 30 minutos",-13.5814626,-41.2406872
396,2902906,Municipio,"Barra do Choça",29028,"Vitória da Conquista",2906,"Centro Sul Baiano",29,BA,Bahia,2,NE,Nordeste,,45120000,45129999,,,77,31.603,"765,152","44,42",barra-chocense,"Adiodato Jos&eacute; de Ara&uacute;jo","507 km","7 horas 18 minutos",-14.8659921,-40.5781186
398,2903003,Municipio,"Barra do Mendes",29009,Irecê,2903,"Centro Norte Baiano",29,BA,Bahia,2,NE,Nordeste,,44990000,44999999,,,74,13.865,"1.586,629","9,08",barra-mendense,"Armenio Sodr&eacute; Nunes","541 km","7 horas 3 minutos",-11.8100596,-42.0581825
400,2903102,Municipio,"Barra do Rocha",29031,Ilhéus-Itabuna,2907,"Sul Baiano",29,BA,Bahia,2,NE,Nordeste,45560000,45560000,45569999,,,73,5.714,"214,411","30,30",barra-rochense,"Lu&iacute;s S&eacute;rgio Alves de Souza","279 km","5 horas 31 minutos",-14.1828376,-39.6311688
403,2903201,Municipio,Barreiras,29001,Barreiras,2901,"Extremo Oeste Baiano",29,BA,Bahia,2,NE,Nordeste,,47800001,47819999,,,77,155.439,"7.859,716","17,49",barreirense,"Jo&atilde;o Barbosa de Souza Sobrinho","873 km","11 horas 31 minutos",-12.1477483,-44.9953475
404,2903235,Municipio,"Barro Alto",29009,Irecê,2903,"Centro Norte Baiano",29,BA,Bahia,2,NE,Nordeste,,44895000,44899999,,,74,14.931,"414,510","32,68",barro-altino,"Orlando Amorim Santos","509 km","6 horas 49 minutos",-11.7632179,-41.9091372
405,2903300,Municipio,"Barro Preto",29031,Ilhéus-Itabuna,2907,"Sul Baiano",29,BA,Bahia,2,NE,Nordeste,,45625000,45629999,,,73,5.591,"201,585","50,26",barro-pretense,"Ana Paula Silva Sim&otilde;es","325 km","6 horas 15 minutos",-14.7952324,-39.4763925
407,2903276,Municipio,Barrocas,29016,Serrinha,2904,"Nordeste Baiano",29,BA,Bahia,2,NE,Nordeste,,48705000,48709999,,,75,15.978,"207,297","70,61",barroquense,"Jos&eacute; Jailson Lima Ferreira","203 km","3 horas 14 minutos",-11.5313332,-39.0797371
413,2903409,Municipio,Belmonte,29031,Ilhéus-Itabuna,2907,"Sul Baiano",29,BA,Bahia,2,NE,Nordeste,,45800000,45806999,,,73,23.328,"1.939,447","11,06",belmontense,"Janio Natal Andrade Borges","520 km","8 horas 45 minutos",-16.1043418,-39.2720904
414,2903508,Municipio,"Belo Campo",29028,"Vitória da Conquista",2906,"Centro Sul Baiano",29,BA,Bahia,2,NE,Nordeste,,45160000,45169999,,,77,17.211,"772,757","25,47",belo-campense,"Jos&eacute; Henrique Silva Tigre","582 km","8 horas 27 minutos",-15.0378169,-41.2587906
419,2903607,Municipio,Biritinga,29016,Serrinha,2904,"Nordeste Baiano",29,BA,Bahia,2,NE,Nordeste,,48780000,48789999,,,75,15.979,"553,762","26,97",biritinguense,"Antonio Celso Avelino de Queiroz","229 km","3 horas 41 minutos",-11.5628874,-38.7786956
421,2903706,Municipio,"Boa Nova",29028,"Vitória da Conquista",2906,"Centro Sul Baiano",29,BA,Bahia,2,NE,Nordeste,,45250000,45254999,,,77,12.633,"849,538","17,74",boa-novense,"Adonias da Rocha Pires de Almeida","446 km","6 horas 17 minutos",-14.3652117,-40.2076455
424,2903805,Municipio,"Boa Vista do Tupim",29011,Itaberaba,2903,"Centro Norte Baiano",29,BA,Bahia,2,NE,Nordeste,,46850000,46859999,,,75,18.576,"2.972,109","6,40",tupinense,"Helder Lopes Campos","353 km","4 horas 30 minutos",-12.7854297,-40.5533995
427,2903904,Municipio,"Bom Jesus da Lapa",29007,"Bom Jesus da Lapa",2902,"Vale São-Franciscano da Bahia",29,BA,Bahia,2,NE,Nordeste,,47600000,47609999,,,77,69.148,"4.115,511","15,11",lapense,"Eures Ribeiro Pereira","779 km","10 horas 18 minutos",-13.2786154,-43.2521507
428,2903953,Municipio,"Bom Jesus da Serra",29028,"Vitória da Conquista",2906,"Centro Sul Baiano",29,BA,Bahia,2,NE,Nordeste,,45263000,45264999,,,77,9.880,"467,813","23,99",bom-jesuense,"Edinaldo Meira Silva","451 km","6 horas 26 minutos",-14.3759092,-40.5059566
431,2904001,Municipio,Boninal,29023,Seabra,2906,"Centro Sul Baiano",29,BA,Bahia,2,NE,Nordeste,,46740000,46749999,,,75,14.368,"896,857","14,66",boninalense,"Aurelio Fagundes de Souza","530 km","6 horas 57 minutos",-12.7098921,-41.8309701
432,2904050,Municipio,Bonito,29023,Seabra,2906,"Centro Sul Baiano",29,BA,Bahia,2,NE,Nordeste,,46820000,46824999,,,75,16.764,"791,276","20,42",bonitense,"Reinan Cedro de Oliveira","459 km","5 horas 42 minutos",-11.9475289,-41.3209993
433,2904100,Municipio,Boquira,29022,Boquira,2906,"Centro Sul Baiano",29,BA,Bahia,2,NE,Nordeste,,46530000,46539999,,,77,21.508,"1.426,233","14,86",boquirense,"Luciano de Oliveira e Silva","672 km","8 horas 59 minutos",-12.7959196,-42.7857583
434,2904209,Municipio,Botuporã,29022,Boquira,2906,"Centro Sul Baiano",29,BA,Bahia,2,NE,Nordeste,,46570000,46574999,,,77,10.211,"627,612","17,28",botuporãense,"Otaviano Joaquim Filho","673 km","9 horas 30 minutos",-13.3794145,-42.5216542
440,2904308,Municipio,Brejões,29024,Jequié,2906,"Centro Sul Baiano",29,BA,Bahia,2,NE,Nordeste,,45325000,45329999,,,75,14.295,"518,566","29,70",brejoense,"Alessandro Rodrigues Brandao Correia","280 km","3 horas 58 minutos",-13.1003732,-39.8579118
441,2904407,Municipio,Brejolândia,29002,Cotegipe,2901,"Extremo Oeste Baiano",29,BA,Bahia,2,NE,Nordeste,47750000,47750000,47759999,,,77,10.557,"2.247,208","4,04",brejolandense,"Gilmar Ribeiro da Silva","757 km","10 horas 6 minutos",-12.4660549,-43.7142484
442,2904506,Municipio,"Brotas de Macaúbas",29022,Boquira,2906,"Centro Sul Baiano",29,BA,Bahia,2,NE,Nordeste,,47560000,47579999,,,77,10.231,"2.370,486","4,78",brotense,"Litercilio Nunes de Oliveira Junior","615 km","8 horas 7 minutos",-12.0011499,-42.6303208
443,2904605,Municipio,Brumado,29027,Brumado,2906,"Centro Sul Baiano",29,BA,Bahia,2,NE,Nordeste,,46100000,46109999,,,77,67.195,"2.207,612","29,01",brumadense,"Eduardo Lima Vasconcelos","539 km","7 horas 10 minutos",-14.1968614,-41.6809724
445,2904704,Municipio,Buerarema,29031,Ilhéus-Itabuna,2907,"Sul Baiano",29,BA,Bahia,2,NE,Nordeste,45615000,45615000,45619999,,,73,18.349,"219,487","80,73",bueraremense,"Vinicius Ibrann Dantas Andrade Oliveira","344 km","6 horas 27 minutos",-14.9844342,-39.2583293
450,2904753,Municipio,Buritirama,29006,Barra,2902,"Vale São-Franciscano da Bahia",29,BA,Bahia,2,NE,Nordeste,,47120000,47149999,,,77,21.174,"4.046,736","4,97",buritiramense,"Judisnei Alves de Souza","766 km","10 horas 4 minutos",-10.7170152,-43.6311936
451,2904803,Municipio,Caatiba,29028,"Vitória da Conquista",2906,"Centro Sul Baiano",29,BA,Bahia,2,NE,Nordeste,,45130000,45139999,,,77,6.758,"512,436","22,14",caatibense,"Maria Tania Ribeiro Sousa","544 km","8 horas 12 minutos",-14.9789473,-40.4107716
452,2904852,Municipio,"Cabaceiras do Paraguaçu",29020,"Santo Antônio de Jesus",2905,"Metropolitana de Salvador",29,BA,Bahia,2,NE,Nordeste,,44345000,44349999,,,75,18.807,"222,026","76,66",cabaceirense,"Abel Silva dos Santos","157 km","2 horas 14 minutos",-12.5392839,-39.1884171
455,2904902,Municipio,Cachoeira,29020,"Santo Antônio de Jesus",2905,"Metropolitana de Salvador",29,BA,Bahia,2,NE,Nordeste,,44300000,44319999,,,75,33.470,"399,930","81,03",cachoeirano,"Fernando Antonio da Silva Pereira","118 km","1 hora 49 minutos",-12.6009889,-38.9659394
457,2905008,Municipio,Caculé,29026,Guanambi,2906,"Centro Sul Baiano",29,BA,Bahia,2,NE,Nordeste,,46300000,46309999,,,77,23.170,"610,983","33,27",caculense,"Jos&eacute; Roberto Neves","641 km","8 horas 33 minutos",-14.4974525,-42.2236477
458,2905107,Municipio,Caém,29010,Jacobina,2903,"Centro Norte Baiano",29,BA,Bahia,2,NE,Nordeste,,44730000,44739999,,,74,9.213,"540,908","18,91",caenense,"Gilberto Ferreira Matos","365 km","4 horas 55 minutos",-11.090229,-40.4321894
459,2905156,Municipio,Caetanos,29028,"Vitória da Conquista",2906,"Centro Sul Baiano",29,BA,Bahia,2,NE,Nordeste,,45265000,45269999,,,77,14.542,"877,650","17,61",caetanense,"Paulo Alves dos Reis","507 km","7 horas 26 minutos",-14.3368001,-40.9095911
461,2905206,Municipio,Caetité,29026,Guanambi,2906,"Centro Sul Baiano",29,BA,Bahia,2,NE,Nordeste,,46400000,46424999,,,77,50.975,"2.651,537","19,45",caetiteense,"Aldo Ricardo Cardoso Gondim","636 km","8 horas 21 minutos",-14.0648657,-42.4858867
462,2905305,Municipio,Cafarnaum,29009,Irecê,2903,"Centro Norte Baiano",29,BA,Bahia,2,NE,Nordeste,,44880000,44884999,,,74,18.437,"643,660","25,49",cafarnauense,"Sueli Fernandes de Souza Novais","469 km","5 horas 47 minutos",-11.824513,-41.5981681
465,2905404,Municipio,Cairu,29030,Valença,2907,"Sul Baiano",29,BA,Bahia,2,NE,Nordeste,,45420000,45429999,,,75,18.176,"448,818","33,35",cairuense,"Fernando Antonio dos Santos Brito","174 km","3 horas 37 minutos",-13.4911768,-39.0486542
470,2905503,Municipio,"Caldeirão Grande",29010,Jacobina,2903,"Centro Norte Baiano",29,BA,Bahia,2,NE,Nordeste,,44750000,44754999,,,74,13.327,"458,311","27,46",caldeirão-grandense,"Candido Pereira da Guirra Filho","360 km","4 horas 56 minutos",-11.0212955,-40.3042406
472,2905602,Municipio,Camacan,29031,Ilhéus-Itabuna,2907,"Sul Baiano",29,BA,Bahia,2,NE,Nordeste,,45880000,45889999,,,73,31.988,"584,848","50,22",camacaense,"Oziel Rodrigues da Cruz Bastos","401 km","7 horas 1 minuto",-15.4201038,-39.4964037
473,2905701,Municipio,Camaçari,29021,Salvador,2905,"Metropolitana de Salvador",29,BA,Bahia,2,NE,Nordeste,,42800001,42849999,,,71,299.132,"785,335","309,65",camaçariense,"Antonio Elinaldo Araujo da Silva","51,6 km","54 minutos",-12.6971776,-38.3331983
474,2905800,Municipio,Camamu,29030,Valença,2907,"Sul Baiano",29,BA,Bahia,2,NE,Nordeste,,45445000,45449999,,,73,35.316,"839,702","38,22",camamuense,"Iona Queiroz Nascimento","196 km","4 horas 8 minutos",-13.947676,-39.1131803
478,2905909,Municipio,"Campo Alegre de Lourdes",29004,Juazeiro,2902,"Vale São-Franciscano da Bahia",29,BA,Bahia,2,NE,Nordeste,,47220000,47239999,,,74,28.798,"2.781,170","10,10",campo-alegrense,"Enilson Marcelo Rodrigues da Silva","849 km","11 horas 47 minutos",-9.5185954,-43.0121652
479,2906006,Municipio,"Campo Formoso",29008,"Senhor do Bonfim",2903,"Centro Norte Baiano",29,BA,Bahia,2,NE,Nordeste,,44790000,44797999,,,74,71.206,"7.161,827","9,18",campo-formosense,"Rosangela Maria Monteiro de Menezes","428 km","5 horas 55 minutos",-10.5077908,-40.3230997
483,2906105,Municipio,Canápolis,29003,"Santa Maria da Vitória",2901,"Extremo Oeste Baiano",29,BA,Bahia,2,NE,Nordeste,,47730000,47739999,,,77,9.711,"460,388","21,52",canapolense,"Myriam Gon&ccedil;alves Teixeira de Oliveira","862 km","11 horas 21 minutos",-13.072895,-44.2013359
484,2906204,Municipio,Canarana,29009,Irecê,2903,"Centro Norte Baiano",29,BA,Bahia,2,NE,Nordeste,,44890000,44894999,,,74,26.176,"579,727","41,76",canaraense,"Ezenivaldo Alves Dourado","491 km","6 horas 25 minutos",-11.6863755,-41.766809
486,2906303,Municipio,Canavieiras,29031,Ilhéus-Itabuna,2907,"Sul Baiano",29,BA,Bahia,2,NE,Nordeste,,45860000,45864999,,,73,31.099,"1.334,295","24,37",canavieirense,"Clovis Roberto Almeida de Souza","426 km","7 horas 40 minutos",-15.6773592,-38.9452099
488,2906402,Municipio,Candeal,29016,Serrinha,2904,"Nordeste Baiano",29,BA,Bahia,2,NE,Nordeste,,48710000,48719999,,,75,8.258,"447,578","19,98",candealense,"Everton Pereira Cerqueira","176 km","2 horas 38 minutos",-11.8091955,-39.1184039
489,2906501,Municipio,Candeias,29021,Salvador,2905,"Metropolitana de Salvador",29,BA,Bahia,2,NE,Nordeste,,43800001,43849999,,,71,87.076,"251,628","321,87",candeense,"Pitagoras Alves da Silva Ibiapina","56,6 km","48 minutos",-12.6869653,-38.4639632
490,2906600,Municipio,Candiba,29026,Guanambi,2906,"Centro Sul Baiano",29,BA,Bahia,2,NE,Nordeste,,46380000,46389999,,,77,14.319,"433,642","31,60",candibense,"Jarbas Henrique Martins Oliveira","702 km","9 horas 22 minutos",-14.4058011,-42.8442913
491,2906709,Municipio,"Cândido Sales",29028,"Vitória da Conquista",2906,"Centro Sul Baiano",29,BA,Bahia,2,NE,Nordeste,,45157000,45159999,,,77,25.189,"1.169,813","17,26",cândido-salense,"Elaine Pontes de Oliveira","603 km","8 horas 43 minutos",-15.5053815,-41.2352703
493,2906808,Municipio,Cansanção,29014,"Euclides da Cunha",2904,"Nordeste Baiano",29,BA,Bahia,2,NE,Nordeste,,48840000,48849999,,,75,34.834,"1.351,891","24,62",cansançãoense,"Paulo Henrique Passos Andrade","354 km","5 horas 16 minutos",-10.6678189,-39.4964517
495,2906824,Municipio,Canudos,29014,"Euclides da Cunha",2904,"Nordeste Baiano",29,BA,Bahia,2,NE,Nordeste,,48520000,48539999,,,75,16.668,"3.189,540","4,89",canudense,"Genario Rabelo de Alcantara Neto","409 km","6 horas 10 minutos",-9.8964307,-39.0294419
498,2906857,Municipio,"Capela do Alto Alegre",29016,Serrinha,2904,"Nordeste Baiano",29,BA,Bahia,2,NE,Nordeste,,44645000,44649999,,,75,11.637,"629,586","17,75",capelense,"Claudinei Xavier Novato","278 km","3 horas 52 minutos",-11.6853875,-39.8579118
499,2906873,Municipio,"Capim Grosso",29010,Jacobina,2903,"Centro Norte Baiano",29,BA,Bahia,2,NE,Nordeste,,44695000,44697999,,,74,30.662,"464,776","79,47",capim-grossense,"Lydia Fontoura Pinheiro","298 km","4 horas 1 minuto",-11.3801768,-40.0068953
501,2906899,Municipio,Caraíbas,29027,Brumado,2906,"Centro Sul Baiano",29,BA,Bahia,2,NE,Nordeste,,45177000,45179999,,,77,8.951,"805,629","12,69",caraibense,"Jones Coelho Dias","565 km","7 horas 29 minutos",-14.7245637,-41.2575904
505,2906907,Municipio,Caravelas,29032,"Porto Seguro",2907,"Sul Baiano",29,BA,Bahia,2,NE,Nordeste,,45900000,45909999,,,73,22.016,"2.377,872","8,95",caravelense,"S&iacute;lvio Ramalho da Silva","723 km","11 horas 43 minutos",-17.7335834,-39.2652564
506,2907004,Municipio,"Cardeal da Silva",29018,"Entre Rios",2904,"Nordeste Baiano",29,BA,Bahia,2,NE,Nordeste,,48390000,48399999,,,75,9.295,"293,456","34,64",cardinalense,"Mariane Mercuri de Santana Almeida Olive","161 km","2 horas 35 minutos",-11.9476332,-37.9472508
507,2907103,Municipio,Carinhanha,29007,"Bom Jesus da Lapa",2902,"Vale São-Franciscano da Bahia",29,BA,Bahia,2,NE,Nordeste,,46445000,46445999,,,77,29.018,"2.529,445","10,37",carinhanhense,"Geraldo Pereira Costa","788 km","10 horas 22 minutos",-14.302562,-43.7677849
511,2907202,Municipio,"Casa Nova",29004,Juazeiro,2902,"Vale São-Franciscano da Bahia",29,BA,Bahia,2,NE,Nordeste,,47300000,47349999,,,74,71.969,"9.647,072","6,73",casa-novense,"Wilker Oliveira Torres","596 km","8 horas 19 minutos",-9.169477,-40.9733157
513,2907301,Municipio,"Castro Alves",29020,"Santo Antônio de Jesus",2905,"Metropolitana de Salvador",29,BA,Bahia,2,NE,Nordeste,,44500000,44519999,,,75,26.264,"713,789","35,70",castro-alvense,"Thiancle da Silva Ara&uacute;jo","197 km","2 horas 43 minutos",-12.7630815,-39.4297707
516,2907400,Municipio,Catolândia,29001,Barreiras,2901,"Extremo Oeste Baiano",29,BA,Bahia,2,NE,Nordeste,47845000,47845000,47849999,,,77,3.577,"703,367","4,06",catolandiano,"Gilvan  Pimentel Ataide","867 km","11 horas 43 minutos",-12.3146804,-44.8635449
519,2907509,Municipio,Catu,29019,Catu,2905,"Metropolitana de Salvador",29,BA,Bahia,2,NE,Nordeste,,48110000,48119999,,,71,54.704,"426,955","122,72",catuense,"Geranilson Dantas Requi&atilde;o","93,3 km","1 hora 21 minutos",-12.3713805,-38.3852123
521,2907558,Municipio,Caturama,29022,Boquira,2906,"Centro Sul Baiano",29,BA,Bahia,2,NE,Nordeste,,46575000,46579999,,,77,9.329,"716,261","13,31",caturamense,"Paulo Humberto Neves Mendonca","680 km","9 horas 7 minutos",-13.3299041,-42.2909374
523,2907608,Municipio,Central,29009,Irecê,2903,"Centro Norte Baiano",29,BA,Bahia,2,NE,Nordeste,,44940000,44949999,,,74,17.266,"566,974","28,24",centralense,"Uilson Monteiro da Silva","512 km","6 horas 28 minutos",-11.1354374,-42.1114915
525,2907707,Municipio,Chorrochó,29005,"Paulo Afonso",2902,"Vale São-Franciscano da Bahia",29,BA,Bahia,2,NE,Nordeste,,48660000,48679999,,,75,11.177,"3.005,319","3,57",chorrochoense,"Humberto Gomes Ramos",,,-9.3334282,-39.2375507
526,2907806,Municipio,"Cícero Dantas",29015,"Ribeira do Pombal",2904,"Nordeste Baiano",29,BA,Bahia,2,NE,Nordeste,,48410000,48414999,,,75,32.515,"863,932","36,50",cícero-dantense,"Ricardo Almeida Nunes da Silva","322 km","4 horas 31 minutos",-10.5927411,-38.3775706
528,2907905,Municipio,Cipó,29015,"Ribeira do Pombal",2904,"Nordeste Baiano",29,BA,Bahia,2,NE,Nordeste,48450000,48450000,48454999,,,75,17.300,"155,718","122,78",cipoense,"Abel Alves Ara&uacute;jo","258 km","3 horas 39 minutos",-11.0997707,-38.5146001
529,2908002,Municipio,Coaraci,29031,Ilhéus-Itabuna,2907,"Sul Baiano",29,BA,Bahia,2,NE,Nordeste,,45638000,45639999,,,73,16.993,"274,500","74,17",coaraciense,"Jadson Albano Galvao","328 km","6 horas 6 minutos",-14.6405203,-39.54984
530,2908101,Municipio,Cocos,29003,"Santa Maria da Vitória",2901,"Extremo Oeste Baiano",29,BA,Bahia,2,NE,Nordeste,,47680000,47689999,,,77,18.777,"10.140,572","1,77",coquense,"Marcelo de Souza Emerenciano","881 km","12 horas 5 minutos",-14.1823449,-44.5356862
533,2908200,Municipio,"Conceição da Feira",29012,"Feira de Santana",2903,"Centro Norte Baiano",29,BA,Bahia,2,NE,Nordeste,,44320000,44329999,,,75,22.581,"164,798","125,19",conceiçoense,"Raimundo da Cruz Bastos","127 km","1 hora 42 minutos",-12.5029708,-39.0009932
534,2908309,Municipio,"Conceição do Almeida",29020,"Santo Antônio de Jesus",2905,"Metropolitana de Salvador",29,BA,Bahia,2,NE,Nordeste,,44540000,44549999,,,75,17.247,"284,836","61,70",almeidense,"Adailton Campos Sobral","168 km","2 horas 18 minutos",-12.7793553,-39.1699224
535,2908408,Municipio,"Conceição do Coité",29016,Serrinha,2904,"Nordeste Baiano",29,BA,Bahia,2,NE,Nordeste,,48730000,48749999,,,75,66.612,"1.015,252","61,06",coiteense,"Francisco de Assis Alves dos Santos","225 km","3 horas 22 minutos",-11.5576676,-39.2791011
536,2908507,Municipio,"Conceição do Jacuípe",29012,"Feira de Santana",2903,"Centro Norte Baiano",29,BA,Bahia,2,NE,Nordeste,,44245000,44249999,,,75,33.153,"117,529","256,30",conjacuipense,"Normelia Maria Rocha Correia","101 km","1 hora 23 minutos",-12.330524,-38.7670952
537,2908606,Municipio,Conde,29018,"Entre Rios",2904,"Nordeste Baiano",29,BA,Bahia,2,NE,Nordeste,,48300000,48309999,,,75,25.837,"931,106","24,49",condense,"Antonio Eduardo Lins de Castro","188 km","2 horas 33 minutos",-11.8538988,-37.5683236
538,2908705,Municipio,Condeúba,29027,Brumado,2906,"Centro Sul Baiano",29,BA,Bahia,2,NE,Nordeste,,46200000,46204999,,,77,17.247,"1.348,437","13,14",condeubense,"Silvan Baleeiro de Sousa","648 km","9 horas 1 minuto",-14.9006135,-41.968944
539,2908804,Municipio,"Contendas do Sincorá",29023,Seabra,2906,"Centro Sul Baiano",29,BA,Bahia,2,NE,Nordeste,,46620000,46639999,,,77,4.066,"977,455","4,46",contendense,"Ueliton Valdir Palmeira Souza","444 km","5 horas 55 minutos",-13.8371976,-41.0797172
543,2908903,Municipio,"Coração de Maria",29012,"Feira de Santana",2903,"Centro Norte Baiano",29,BA,Bahia,2,NE,Nordeste,,44250000,44254999,,,75,22.605,"378,420","64,34",mariense,"Edimario Paim de Cerqueira","112 km","1 hora 33 minutos",-12.247835,-38.7520088
544,2909000,Municipio,Cordeiros,29027,Brumado,2906,"Centro Sul Baiano",29,BA,Bahia,2,NE,Nordeste,,46280000,46289999,,,77,8.614,"523,640","15,25",cordeirense,"Delci Alves Luz","677 km","9 horas 15 minutos",-15.0378014,-41.9346814
545,2909109,Municipio,Coribe,29003,"Santa Maria da Vitória",2901,"Extremo Oeste Baiano",29,BA,Bahia,2,NE,Nordeste,,47690000,47699999,,,77,14.194,"2.662,886","5,77",coribense,"Manuel Azevedo Rocha","952 km","12 horas 28 minutos",-13.7649533,-44.3236557
546,2909208,Municipio,"Coronel João Sá",29013,Jeremoabo,2904,"Nordeste Baiano",29,BA,Bahia,2,NE,Nordeste,,48590000,48599999,,,75,15.895,"883,522","19,32",joão-saense,"Carlos Augusto Silveira Sobral","453 km","6 horas 5 minutos",-10.2847219,-37.927295
547,2909307,Municipio,Correntina,29003,"Santa Maria da Vitória",2901,"Extremo Oeste Baiano",29,BA,Bahia,2,NE,Nordeste,,47650000,47654999,,,77,32.137,"11.492,171","2,62",correntinense,"Nilson Jos&eacute; Rodrigues","918 km","11 horas 54 minutos",-13.3425639,-44.6357308
549,2909406,Municipio,Cotegipe,29002,Cotegipe,2901,"Extremo Oeste Baiano",29,BA,Bahia,2,NE,Nordeste,,47900000,47939999,,,77,13.782,"4.282,775","3,25",cotegipano,"M&aacute;rcia da Silva S&aacute; Teles","830 km","10 horas 58 minutos",-12.029221,-44.2590312
551,2909505,Municipio,Cravolândia,29024,Jequié,2906,"Centro Sul Baiano",29,BA,Bahia,2,NE,Nordeste,,45330000,45339999,,,73,5.349,"182,585","31,08",cravolandense,"Ivete Soares Teixeira Araujo","225 km","4 horas 32 minutos",-13.3571121,-39.8134537
552,2909604,Municipio,Crisópolis,29017,Alagoinhas,2904,"Nordeste Baiano",29,BA,Bahia,2,NE,Nordeste,,48480000,48484999,,,75,21.103,"636,609","32,99",crisopolense,"Edinal Alves da Costa","218 km","3 horas 28 minutos",-11.5048979,-38.1899782
554,2909703,Municipio,Cristópolis,29002,Cotegipe,2901,"Extremo Oeste Baiano",29,BA,Bahia,2,NE,Nordeste,47950000,47950000,47959999,,,77,13.910,"1.052,837","12,73",cristopolense,"Gilson Nascimento de Souza","795 km","10 horas 33 minutos",-12.1739904,-44.2857937
556,2909802,Municipio,"Cruz das Almas",29020,"Santo Antônio de Jesus",2905,"Metropolitana de Salvador",29,BA,Bahia,2,NE,Nordeste,,44380000,44399999,,,75,63.239,"139,117","402,12",cruz-almense,"Orlando Peixoto Pereira Filho","153 km","2 horas 8 minutos",-12.6735557,-39.1016848
559,2909901,Municipio,Curaçá,29004,Juazeiro,2902,"Vale São-Franciscano da Bahia",29,BA,Bahia,2,NE,Nordeste,,48930000,48949999,,,74,34.700,"5.935,944","5,29",curaçaense,"Pedro Alves de Oliveira",,,-9.268145,-39.734338
561,2910008,Municipio,"Dário Meira",29028,"Vitória da Conquista",2906,"Centro Sul Baiano",29,BA,Bahia,2,NE,Nordeste,,45590000,45599999,,,73,10.710,"413,637","28,82",dário-meirense,"William Almeida Sena","334 km","6 horas 25 minutos",-14.4324819,-39.9037092
565,2910057,Municipio,"Dias D'Ávila",29021,Salvador,2905,"Metropolitana de Salvador",29,BA,Bahia,2,NE,Nordeste,,42850000,43699999,,,71,81.089,"184,230","360,64",diasdavilense,"Jussara M&aacute;rcia do Nascimento","59,5 km","55 minutos",-12.6191964,-38.2929948
567,2910107,Municipio,"Dom Basílio",29025,"Livramento do Brumado",2906,"Centro Sul Baiano",29,BA,Bahia,2,NE,Nordeste,,46165000,46169999,,,77,12.199,"688,646","16,78",dom-basiliense,"Roberval de Cassia Meira","592 km","7 horas 50 minutos",-13.7601267,-41.7718862
568,2910206,Municipio,"Dom Macedo Costa",29020,"Santo Antônio de Jesus",2905,"Metropolitana de Salvador",29,BA,Bahia,2,NE,Nordeste,,44560000,44564999,,,75,4.058,"94,778","45,70",macedense,"Egnaldo Piton Moura","186 km","2 horas 35 minutos",-12.9048752,-39.1946718
571,2910305,Municipio,"Elísio Medrado",29012,"Feira de Santana",2903,"Centro Norte Baiano",29,BA,Bahia,2,NE,Nordeste,,45305000,45309999,,,75,8.122,"179,329","41,06",medradense,"Robson Epaminondas Santana de Souza","152 km","3 horas 29 minutos",-12.9467388,-39.5232495
572,2910404,Municipio,Encruzilhada,29029,Itapetinga,2906,"Centro Sul Baiano",29,BA,Bahia,2,NE,Nordeste,,45150000,45154999,,,77,17.006,"1.890,133","11,99",encruzilhadense,"Wekisley Teixeira Silva","616 km","9 horas 4 minutos",-15.5306298,-40.9128094
575,2910503,Municipio,"Entre Rios",29018,"Entre Rios",2904,"Nordeste Baiano",29,BA,Bahia,2,NE,Nordeste,,48180000,48279999,,,75,41.780,"1.187,514","32,81",entrerriense,"Elizio Fernandes Rodrigues Sim&otilde;es","143 km","2 horas 19 minutos",-11.9441553,-38.0841738
576,2900504,Municipio,"Érico Cardoso",29025,"Livramento do Brumado",2906,"Centro Sul Baiano",29,BA,Bahia,2,NE,Nordeste,46180000,46180000,46189999,,,77,10.610,"735,249","15,48",érico-cardosense,"Erico Cardoso de Azevedo","681 km","9 horas 14 minutos",-13.4184277,-42.1397008
577,2910602,Municipio,Esplanada,29018,"Entre Rios",2904,"Nordeste Baiano",29,BA,Bahia,2,NE,Nordeste,,48370000,48389999,,,75,37.237,"1.299,355","25,27",esplanadense,"Francisco da Cruz","170 km","2 horas 38 minutos",-11.7956851,-37.9447996
578,2910701,Municipio,"Euclides da Cunha",29014,"Euclides da Cunha",2904,"Nordeste Baiano",29,BA,Bahia,2,NE,Nordeste,,48500000,48519999,,,75,60.585,"1.992,639","27,75",euclidense,"Luciano Pinheiro Damasceno e Santos","326 km","5 horas 0 minutos",-10.5086869,-39.0137658
579,2910727,Municipio,Eunápolis,29032,"Porto Seguro",2907,"Sul Baiano",29,BA,Bahia,2,NE,Nordeste,,45820001,45833999,,,73,113.380,"1.425,970","84,97",eunapolitano,"Jos&eacute; Rob&eacute;rio Batista de Oliveira","529 km","8 horas 43 minutos",-16.3717837,-39.5818005
580,2910750,Municipio,Fátima,29015,"Ribeira do Pombal",2904,"Nordeste Baiano",29,BA,Bahia,2,NE,Nordeste,,48415000,48419999,,,75,17.890,"359,394","49,12",fatimense,"Manoel Missias Vieira","344 km","4 horas 55 minutos",-10.6094132,-38.1899782
581,2910776,Municipio,"Feira da Mata",29007,"Bom Jesus da Lapa",2902,"Vale São-Franciscano da Bahia",29,BA,Bahia,2,NE,Nordeste,,46446000,46449999,,,77,5.665,"1.176,111","3,78",matense,"Aparecido Alves da Silva","847 km","11 horas 20 minutos",-14.2118182,-44.2807596
582,2910800,Municipio,"Feira de Santana",29012,"Feira de Santana",2903,"Centro Norte Baiano",29,BA,Bahia,2,NE,Nordeste,,44000001,44149999,,,75,614.872,"1.304,425","416,03",feirense,"Colbert Martins da Silva Filho","116 km","1 hora 35 minutos",-12.2597272,-38.9646608
584,2910859,Municipio,Filadélfia,29008,"Senhor do Bonfim",2903,"Centro Norte Baiano",29,BA,Bahia,2,NE,Nordeste,,44775000,44779999,,,74,16.377,"579,686","29,36",filadelfense,"Lourivaldo Pereira Maia","374 km","5 horas 5 minutos",-10.7429119,-40.1329774
586,2910909,Municipio,"Firmino Alves",29031,Ilhéus-Itabuna,2907,"Sul Baiano",29,BA,Bahia,2,NE,Nordeste,,45720000,45724999,,,73,5.617,"172,353","33,15",firmino-alvense,"Aurelino Moreno da Cunha Neto","401 km","7 horas 4 minutos",-14.9871201,-39.9246186
587,2911006,Municipio,"Floresta Azul",29031,Ilhéus-Itabuna,2907,"Sul Baiano",29,BA,Bahia,2,NE,Nordeste,,45740000,45744999,,,73,10.629,"321,013","36,32",floresta-azulense,"Gicelia de Santana Oliveira Santos","363 km","6 horas 36 minutos",-14.8587507,-39.6604618
588,2911105,Municipio,"Formosa do Rio Preto",29001,Barreiras,2901,"Extremo Oeste Baiano",29,BA,Bahia,2,NE,Nordeste,,47990000,47999999,,,77,25.591,"15.901,745","1,38",formosense,"Termosires Dias dos Santos Neto","951 km","13 horas 12 minutos",-11.0409838,-45.1899521
595,2911204,Municipio,Gandu,29031,Ilhéus-Itabuna,2907,"Sul Baiano",29,BA,Bahia,2,NE,Nordeste,,45450000,45451999,,,73,32.403,"229,631","124,76",ganduense,"Leonardo Barbosa Cardoso","220 km","4 horas 7 minutos",-13.7451468,-39.4857991
596,2911253,Municipio,Gavião,29016,Serrinha,2904,"Nordeste Baiano",29,BA,Bahia,2,NE,Nordeste,,44650000,44654999,,,75,4.463,"384,592","12,33",gavionense,"Raul Soares Moura Junior","263 km","3 horas 29 minutos",-11.5187013,-39.7233013
597,2911303,Municipio,"Gentio do Ouro",29009,Irecê,2903,"Centro Norte Baiano",29,BA,Bahia,2,NE,Nordeste,,47450000,47499999,,,74,11.233,"3.817,946","2,87",gentiense,"Roberio Gomes Cunha","613 km","8 horas 27 minutos",-11.4285981,-42.5048616
599,2911402,Municipio,Glória,29005,"Paulo Afonso",2902,"Vale São-Franciscano da Bahia",29,BA,Bahia,2,NE,Nordeste,,48620000,48629999,,,75,15.221,"1.566,609","12,01",gloriense,"David de Souza Cavalcanti","477 km","6 horas 46 minutos",-9.3448098,-38.2546621
600,2911501,Municipio,Gongogi,29031,Ilhéus-Itabuna,2907,"Sul Baiano",29,BA,Bahia,2,NE,Nordeste,,45540000,45544999,,,73,7.128,"202,193","42,28",gongogiense,"Edvaldo dos Santos","274 km","5 horas 21 minutos",-14.3255357,-39.467151
602,2911600,Municipio,"Governador Mangabeira",29020,"Santo Antônio de Jesus",2905,"Metropolitana de Salvador",29,BA,Bahia,2,NE,Nordeste,,44350000,44359999,,,75,20.722,"106,848","186,40",mangabeirense,"Marcelo Pedreira de Mendon&ccedil;a","139 km","1 hora 50 minutos",-12.6001124,-39.0413969
605,2911659,Municipio,Guajeru,29027,Brumado,2906,"Centro Sul Baiano",29,BA,Bahia,2,NE,Nordeste,,46205000,46219999,,,77,6.937,"872,867","11,12",guajeruense,"Gilmar Rocha Cangussu","599 km","7 horas 55 minutos",-14.547196,-41.9374432
606,2911709,Municipio,Guanambi,29026,Guanambi,2906,"Centro Sul Baiano",29,BA,Bahia,2,NE,Nordeste,,46430000,46437999,,,77,84.481,"1.272,366","60,80",guanambiense,"Jairo Silveira Magalhaes","676 km","8 horas 59 minutos",-14.2194046,-42.7796735
609,2911808,Municipio,Guaratinga,29032,"Porto Seguro",2907,"Sul Baiano",29,BA,Bahia,2,NE,Nordeste,,45840000,45847999,,,73,20.843,"2.189,404","9,53",guaratinguense,"Christine Pinto Rosa","584 km","9 horas 46 minutos",-16.5858728,-39.7848002
614,2911857,Municipio,Heliópolis,29015,"Ribeira do Pombal",2904,"Nordeste Baiano",29,BA,Bahia,2,NE,Nordeste,,48445000,48449999,,,75,13.031,"338,797","38,94",heliopoliense,"Ildefonso Andrade Fonseca","331 km","4 horas 44 minutos",-10.6796435,-38.2820268
618,2911907,Municipio,Iaçu,29011,Itaberaba,2903,"Centro Norte Baiano",29,BA,Bahia,2,NE,Nordeste,,46860000,46874999,,,75,24.305,"2.342,496","10,50",iaçuense,"Adelson Sousa de Oliveira","236 km","3 horas 19 minutos",-12.7260766,-39.8723291
623,2912004,Municipio,Ibiassucê,29026,Guanambi,2906,"Centro Sul Baiano",29,BA,Bahia,2,NE,Nordeste,,46390000,46399999,,,77,9.224,"483,274","23,58",ibiassuceense,"Francisco Adauto Rebou&ccedil;as Prates","615 km","8 horas 10 minutos",-14.2546968,-42.2756861
624,2912103,Municipio,Ibicaraí,29031,Ilhéus-Itabuna,2907,"Sul Baiano",29,BA,Bahia,2,NE,Nordeste,,45745000,45749999,,,73,21.689,"230,953","104,65",ibicaraiense,"Luiz J&aacute;come Brand&atilde;o Neto","356 km","6 horas 32 minutos",-14.8658768,-39.5904206
625,2912202,Municipio,Ibicoara,29023,Seabra,2906,"Centro Sul Baiano",29,BA,Bahia,2,NE,Nordeste,,46760000,46764999,,,77,19.571,"817,355","20,34",ibicoarense,"Haroldo Aguiar","464 km","6 horas 56 minutos",-13.4170963,-41.3209993
626,2912301,Municipio,Ibicuí,29028,"Vitória da Conquista",2906,"Centro Sul Baiano",29,BA,Bahia,2,NE,Nordeste,,45290000,45299999,,,73,16.198,"1.139,378","13,41",ibicuiense,"Marcos Galv&atilde;o de Assis","382 km","7 horas 9 minutos",-14.8433205,-39.9859389
627,2912400,Municipio,Ibipeba,29009,Irecê,2903,"Centro Norte Baiano",29,BA,Bahia,2,NE,Nordeste,,44970000,44989999,,,74,18.211,"1.382,008","12,29",ibipebense,"Dem&oacute;stenes de Sousa Barreto Filho","521 km","6 horas 44 minutos",-11.6447947,-42.0083909
629,2912509,Municipio,Ibipitanga,29022,Boquira,2906,"Centro Sul Baiano",29,BA,Bahia,2,NE,Nordeste,,46540000,46549999,,,77,14.902,"954,373","14,85",ibipitanguense,"Edilson Santos Souza","592 km","8 horas 31 minutos",-12.8453806,-42.3544831
630,2912608,Municipio,Ibiquera,29011,Itaberaba,2903,"Centro Norte Baiano",29,BA,Bahia,2,NE,Nordeste,,46840000,46849999,,,75,4.044,"698,245","5,15",ibiquerense,"Ivan Claudio de Almeida","385 km","4 horas 52 minutos",-12.6457272,-40.9333291
634,2912707,Municipio,Ibirapitanga,29031,Ilhéus-Itabuna,2907,"Sul Baiano",29,BA,Bahia,2,NE,Nordeste,,45500000,45519999,,,73,23.375,"472,694","50,53",ibirapitanguense,"Isravan Lemos Barcelos","242 km","4 horas 51 minutos",-14.1613152,-39.3709231
635,2912806,Municipio,Ibirapuã,29032,"Porto Seguro",2907,"Sul Baiano",29,BA,Bahia,2,NE,Nordeste,,45940000,45949999,,,73,8.637,"771,098","10,10",ibirapuense,"Calixto Antonio Ribeiro","779 km","12 horas 38 minutos",-17.7357875,-40.0222864
636,2912905,Municipio,Ibirataia,29031,Ilhéus-Itabuna,2907,"Sul Baiano",29,BA,Bahia,2,NE,Nordeste,,45580000,45584999,,,73,15.312,"318,129","64,24",ibirataense,"Ana Cleia dos Santos Leal","268 km","5 horas 6 minutos",-14.0666579,-39.6418115
637,2913002,Municipio,Ibitiara,29022,Boquira,2906,"Centro Sul Baiano",29,BA,Bahia,2,NE,Nordeste,,46700000,46729999,,,77,16.339,"1.834,002","8,39",ibitiarense,"Jose Roberto dos Santos Oliveira","554 km","7 horas 31 minutos",-12.5988526,-42.3150993
640,2913101,Municipio,Ibititá,29009,Irecê,2903,"Centro Norte Baiano",29,BA,Bahia,2,NE,Nordeste,,44960000,44969999,,,74,17.113,"573,033","28,63",ibititaense,"Edicley Souza Barreto","509 km","6 horas 31 minutos",-11.5469285,-41.9762653
644,2913200,Municipio,Ibotirama,29006,Barra,2902,"Vale São-Franciscano da Bahia",29,BA,Bahia,2,NE,Nordeste,,47520000,47529999,,,77,26.927,"1.740,087","14,76",ibotiramense,"Claudir Terence Lessa Lopes de Oliveira","662 km","8 horas 53 minutos",-12.030257,-43.2134484
645,2913309,Municipio,Ichu,29016,Serrinha,2904,"Nordeste Baiano",29,BA,Bahia,2,NE,Nordeste,,48725000,48729999,,,75,6.206,"138,016","41,16",ichuense,"Carlos Santiago de Almeida","187 km","2 horas 48 minutos",-11.7467571,-39.1900636
647,2913408,Municipio,Igaporã,29026,Guanambi,2906,"Centro Sul Baiano",29,BA,Bahia,2,NE,Nordeste,,46490000,46499999,,,77,15.640,"836,586","18,26",igaporaense,"Jos&eacute; Suly Fagundes Netto","700 km","9 horas 28 minutos",-13.875646,-42.6684924
651,2913457,Municipio,Igrapiúna,29030,Valença,2907,"Sul Baiano",29,BA,Bahia,2,NE,Nordeste,,45443000,45444999,,,73,13.226,"591,312","25,31",igrapiunense,"Leandro Luiz Ramos Santos","180 km","3 horas 47 minutos",-13.823086,-39.1421073
653,2913507,Municipio,Iguaí,29028,"Vitória da Conquista",2906,"Centro Sul Baiano",29,BA,Bahia,2,NE,Nordeste,,45280000,45289999,,,73,26.916,"860,223","31,05",iguaiense,"Ronaldo Moitinho dos Santos","385 km","7 horas 20 minutos",-14.63891,-40.1043057
659,2913606,Municipio,Ilhéus,29031,Ilhéus-Itabuna,2907,"Sul Baiano",29,BA,Bahia,2,NE,Nordeste,,45650001,45674999,,,73,162.327,"1.588,555","104,67",ilheuense,"Mario Alexandre Correa de Sousa","309 km","5 horas 46 minutos",-14.7935051,-39.0463797
662,2913705,Municipio,Inhambupe,29017,Alagoinhas,2904,"Nordeste Baiano",29,BA,Bahia,2,NE,Nordeste,,48490000,48499999,,,75,39.926,"1.082,260","29,70",inhambupense,"Fortunato Silva Costa","169 km","2 horas 29 minutos",-11.7910581,-38.3562554
667,2913804,Municipio,Ipecaetá,29012,"Feira de Santana",2903,"Centro Norte Baiano",29,BA,Bahia,2,NE,Nordeste,,44680000,44689999,,,75,14.487,"372,565","41,45",ipecaetense,"Sueder Santana Silva Santos","165 km","2 horas 25 minutos",-12.3146806,-39.3080717
668,2913903,Municipio,Ipiaú,29031,Ilhéus-Itabuna,2907,"Sul Baiano",29,BA,Bahia,2,NE,Nordeste,,45570000,45579999,,,73,45.873,"280,454","166,05",ipiauense,"Maria das Gra&ccedil;as Cesar Mendon&ccedil;a","284 km","5 horas 27 minutos",-14.1349424,-39.7385835
669,2914000,Municipio,Ipirá,29012,"Feira de Santana",2903,"Centro Norte Baiano",29,BA,Bahia,2,NE,Nordeste,,44600000,44609999,,,75,59.595,"3.105,280","19,39",ipiraense,"Marcelo Antonio Santos Brandao","213 km","2 horas 44 minutos",-12.1538787,-39.750251
672,2914109,Municipio,Ipupiara,29022,Boquira,2906,"Centro Sul Baiano",29,BA,Bahia,2,NE,Nordeste,,47590000,47599999,,,77,9.865,"1.055,760","8,75",ipupiarense,"Ascir Leite Santos","619 km","8 horas 30 minutos",-11.8207817,-42.6109145
673,2914208,Municipio,Irajuba,29024,Jequié,2906,"Centro Sul Baiano",29,BA,Bahia,2,NE,Nordeste,,45370000,45374999,,,73,7.260,"459,047","16,93",irajubense,"Jeronimo Souza dos Santos","307 km","4 horas 19 minutos",-13.2517818,-40.0849522
674,2914307,Municipio,Iramaia,29024,Jequié,2906,"Centro Sul Baiano",29,BA,Bahia,2,NE,Nordeste,,46770000,46779999,,,77,8.537,"1.708,115","6,16",iramaense,"Antonio Carlos Silva Bastos","417 km","5 horas 48 minutos",-13.4673528,-40.8778586
676,2914406,Municipio,Iraquara,29009,Irecê,2903,"Centro Norte Baiano",29,BA,Bahia,2,NE,Nordeste,,46980000,46989999,,,75,25.216,"991,822","21,96",iraquarense,"Edimario  Guilherme de Novais","466 km","6 horas 18 minutos",-12.2684648,-41.5612423
677,2914505,Municipio,Irará,29012,"Feira de Santana",2903,"Centro Norte Baiano",29,BA,Bahia,2,NE,Nordeste,,44255000,44259999,,,75,29.034,"267,880","98,87",iraraense,"Juscelino Souza dos Santos","137 km","1 hora 58 minutos",-12.0437009,-38.7665492
678,2914604,Municipio,Irecê,29009,Irecê,2903,"Centro Norte Baiano",29,BA,Bahia,2,NE,Nordeste,,44900000,44904999,,,74,72.967,"319,174","207,45",ireceense,"Elmo Vaz Bastos de Matos","479 km","6 horas 2 minutos",-11.3034012,-41.8557693
681,2914653,Municipio,Itabela,29032,"Porto Seguro",2907,"Sul Baiano",29,BA,Bahia,2,NE,Nordeste,45848000,45848000,45849999,,,73,30.584,"924,926","33,37",itabelense,"Luciano Francisqueto","557 km","9 horas 16 minutos",-16.5766626,-39.5580906
682,2914703,Municipio,Itaberaba,29011,Itaberaba,2903,"Centro Norte Baiano",29,BA,Bahia,2,NE,Nordeste,,46880000,46899999,,,75,64.489,"2.386,390","26,30",itaberabense,"Ricardo dos Anjos Mascarenhas","290 km","3 horas 38 minutos",-12.5245874,-40.3062049
683,2914802,Municipio,Itabuna,29031,Ilhéus-Itabuna,2907,"Sul Baiano",29,BA,Bahia,2,NE,Nordeste,,45600001,45614999,,,73,213.223,"401,028","473,50",itabunense,"Fernando Gomes Oliveira","317 km","5 horas 51 minutos",-14.7916229,-39.2833243
684,2914901,Municipio,Itacaré,29031,Ilhéus-Itabuna,2907,"Sul Baiano",29,BA,Bahia,2,NE,Nordeste,,45530000,45539999,,,73,28.296,"726,265","32,96",itacareense,"Antonio Mario Damasceno","250 km","4 horas 50 minutos",-14.2801421,-38.9946495
688,2915007,Municipio,Itaeté,29023,Seabra,2906,"Centro Sul Baiano",29,BA,Bahia,2,NE,Nordeste,,46790000,46799999,,,75,16.056,"1.331,822","12,34",itaeteense,"Valdes Brito de Souza","410 km","5 horas 39 minutos",-13.062764,-41.1103642
689,2915106,Municipio,Itagi,29024,Jequié,2906,"Centro Sul Baiano",29,BA,Bahia,2,NE,Nordeste,,45230000,45239999,,,73,12.351,"310,621","50,35",itagiense,"Olival Andrade Junior","425 km","6 horas 11 minutos",-14.1625612,-40.008339
690,2915205,Municipio,Itagibá,29031,Ilhéus-Itabuna,2907,"Sul Baiano",29,BA,Bahia,2,NE,Nordeste,,45585000,45589999,,,73,14.579,"810,994","19,26",itagibaense,"Gilson Manoel Fonseca","308 km","5 horas 57 minutos",-14.2329823,-39.8579118
691,2915304,Municipio,Itagimirim,29032,"Porto Seguro",2907,"Sul Baiano",29,BA,Bahia,2,NE,Nordeste,,45850000,45854999,,,73,6.869,"876,800","8,47",itagimiriense,"Devanir dos Santos Brillantino","493 km","8 horas 13 minutos",-16.0823865,-39.613684
692,2915353,Municipio,"Itaguaçu da Bahia",29006,Barra,2902,"Vale São-Franciscano da Bahia",29,BA,Bahia,2,NE,Nordeste,47440000,47440000,47449999,,,74,14.429,"4.310,238","2,97",itaguaçuense,"Ivan Tiburtino Oliveira","550 km","6 horas 58 minutos",-11.0119728,-42.3987023
698,2915403,Municipio,"Itaju do Colônia",29031,Ilhéus-Itabuna,2907,"Sul Baiano",29,BA,Bahia,2,NE,Nordeste,,45730000,45739999,,,73,6.682,"1.225,287","5,98",itajuense,"Djalma Orrico Duarte","386 km","7 horas 16 minutos",-15.1442256,-39.7236083
700,2915502,Municipio,Itajuípe,29031,Ilhéus-Itabuna,2907,"Sul Baiano",29,BA,Bahia,2,NE,Nordeste,45630000,45630000,45637999,,,73,20.491,"270,752","74,10",itajuipense,"Marcone Amaral Costa Junior","305 km","5 horas 39 minutos",-14.6747065,-39.3769694
702,2915601,Municipio,Itamaraju,29032,"Porto Seguro",2907,"Sul Baiano",29,BA,Bahia,2,NE,Nordeste,,45836000,45839999,,,73,64.486,"2.360,289","28,47",itamarajuense,"Marcelo Angenica","622 km","10 horas 14 minutos",-17.0389098,-39.529653
703,2915700,Municipio,Itamari,29031,Ilhéus-Itabuna,2907,"Sul Baiano",29,BA,Bahia,2,NE,Nordeste,,45455000,45459999,,,73,8.035,"143,479","71,14",itamariense,"Pallomma Emmanuela Uzeda Tavares Antas","251 km","4 horas 39 minutos",-13.7786444,-39.6833227
704,2915809,Municipio,Itambé,29029,Itapetinga,2906,"Centro Sul Baiano",29,BA,Bahia,2,NE,Nordeste,,45140000,45149999,,,77,23.049,"1.536,299","16,41",itambeense,"Eduardo Coelho de Paiva Gama","578 km","8 horas 18 minutos",-15.251599,-40.6239038
708,2915908,Municipio,Itanagra,29019,Catu,2905,"Metropolitana de Salvador",29,BA,Bahia,2,NE,Nordeste,48290000,48290000,48299999,,,75,6.441,"534,060","15,49",itanagrense,"Dania Maria da Silva","131 km","2 horas 6 minutos",-12.262291,-38.0383044
709,2916005,Municipio,Itanhém,29032,"Porto Seguro",2907,"Sul Baiano",29,BA,Bahia,2,NE,Nordeste,,45970000,45979999,,,73,19.405,"1.394,174","13,81",itanhense,"Zulma Pinheiro dos Santos Vaz","734 km","12 horas 59 minutos",-16.9376048,-40.4980716
711,2916104,Municipio,Itaparica,29021,Salvador,2905,"Metropolitana de Salvador",29,BA,Bahia,2,NE,Nordeste,,44460000,44469999,,,71,22.228,"118,040","175,58",itaparicano,"Marlylda Barbuda dos Santos","28,3 km","1 hora 17 minutos",-12.9001699,-38.6730631
712,2916203,Municipio,Itapé,29031,Ilhéus-Itabuna,2907,"Sul Baiano",29,BA,Bahia,2,NE,Nordeste,,45750000,45759999,,,73,8.761,"453,144","23,94",itapeense,"Naeliton Rosa Pinto","339 km","6 horas 18 minutos",-14.8967981,-39.4237967
713,2916302,Municipio,Itapebi,29031,Ilhéus-Itabuna,2907,"Sul Baiano",29,BA,Bahia,2,NE,Nordeste,,45855000,45859999,,,73,10.259,"1.013,074","10,44",itapebiense,"Juarez da Silva Oliveira","480 km","8 horas 3 minutos",-15.9692844,-39.532111
715,2916401,Municipio,Itapetinga,29029,Itapetinga,2906,"Centro Sul Baiano",29,BA,Bahia,2,NE,Nordeste,,45700000,45709999,,,77,76.147,"1.651,158","41,95",itapetinguense,"Rodrigo Hagge Costa","458 km","7 horas 51 minutos",-15.2475228,-40.2509798
716,2916500,Municipio,Itapicuru,29015,"Ribeira do Pombal",2904,"Nordeste Baiano",29,BA,Bahia,2,NE,Nordeste,,48475000,48479999,,,75,35.576,"1.556,747","20,35",itapicuruense,"Magno Ferreira de Souza","262 km","3 horas 48 minutos",-11.1965165,-38.0106417
718,2916609,Municipio,Itapitanga,29031,Ilhéus-Itabuna,2907,"Sul Baiano",29,BA,Bahia,2,NE,Nordeste,,45645000,45649999,,,73,10.313,"420,664","24,99",itapitanguense,"Dernival Dias Ferreira","296 km","5 horas 53 minutos",-14.4143904,-39.5660203
721,2916708,Municipio,Itaquara,29024,Jequié,2906,"Centro Sul Baiano",29,BA,Bahia,2,NE,Nordeste,,45340000,45344999,,,73,8.319,"344,093","23,77",itaquarense,"Marco Aurelio Wanderley Cruz Costa","240 km","4 horas 45 minutos",-13.4537425,-39.8784831
723,2916807,Municipio,Itarantim,29029,Itapetinga,2906,"Centro Sul Baiano",29,BA,Bahia,2,NE,Nordeste,,45780000,45789999,,,73,19.747,"1.674,029","10,27",itarantinense,"Paulo Silva Vieira","515 km","8 horas 27 minutos",-15.6529523,-40.0579601
725,2916856,Municipio,Itatim,29012,"Feira de Santana",2903,"Centro Norte Baiano",29,BA,Bahia,2,NE,Nordeste,46875000,46875000,46879999,,,75,14.487,"547,510","24,89",itatinhense,"Gilmar Pereira Nogueira","214 km","2 horas 59 minutos",-12.7064081,-39.6973656
727,2916906,Municipio,Itiruçu,29024,Jequié,2906,"Centro Sul Baiano",29,BA,Bahia,2,NE,Nordeste,,45350000,45354999,,,73,12.576,"322,024","40,46",itiruçuense,"Lorenna Moura Di Gregorio","337 km","4 horas 47 minutos",-13.5343931,-40.1506069
728,2917003,Municipio,Itiúba,29008,"Senhor do Bonfim",2903,"Centro Norte Baiano",29,BA,Bahia,2,NE,Nordeste,,48850000,48859999,,,74,36.089,"1.650,593","20,96",itiubense,"Cecilia Petrina de Carvalho","403 km","5 horas 29 minutos",-10.6902426,-39.8557339
729,2917102,Municipio,Itororó,29029,Itapetinga,2906,"Centro Sul Baiano",29,BA,Bahia,2,NE,Nordeste,,45710000,45719999,,,73,20.382,"314,064","63,50",itororoense,"Adauto Oliveira de Almeida","425 km","7 horas 23 minutos",-15.1164355,-40.0639725
730,2917201,Municipio,Ituaçu,29027,Brumado,2906,"Centro Sul Baiano",29,BA,Bahia,2,NE,Nordeste,,46640000,46649999,,,77,18.962,"1.199,374","14,90",ituaçuense,"Adalberto Alves Luz","526 km","7 horas 27 minutos",-13.817229,-41.3611121
731,2917300,Municipio,Ituberá,29030,Valença,2907,"Sul Baiano",29,BA,Bahia,2,NE,Nordeste,,45435000,45435999,,,73,28.602,"415,428","63,73",ituberense,"Iramar Braga de Souza Costa","169 km","3 horas 33 minutos",-13.7360329,-39.1465637
733,2917334,Municipio,Iuiu,29026,Guanambi,2906,"Centro Sul Baiano",29,BA,Bahia,2,NE,Nordeste,,46438000,46439999,,,77,10.994,"1.522,349","7,34",iuiuense,"Reinaldo Barbosa de G&oacute;es","774 km","10 horas 8 minutos",-14.4115321,-43.5525062
734,2917359,Municipio,Jaborandi,29003,"Santa Maria da Vitória",2901,"Extremo Oeste Baiano",29,BA,Bahia,2,NE,Nordeste,47655000,47655000,47664999,,,77,8.385,"9.988,715","0,94",jaborandiense,"Assuero Alves de Oliveira",,,-14.0716002,-45.4498065
735,2917409,Municipio,Jacaraci,29026,Guanambi,2906,"Centro Sul Baiano",29,BA,Bahia,2,NE,Nordeste,,46310000,46329999,,,77,14.842,"1.332,420","11,05",jacaraciense,"Antonio Carlos Freire de Abreu","708 km","9 horas 38 minutos",-14.8438771,-42.4331321
736,2917508,Municipio,Jacobina,29010,Jacobina,2903,"Centro Norte Baiano",29,BA,Bahia,2,NE,Nordeste,,44700000,44709999,,,74,80.518,"2.192,903","33,60",jacobinense,"Luciano Antonio Pinheiro","360 km","4 horas 55 minutos",-11.1816506,-40.5120603
